name,latitude,longitude
Nierskanal,49.01,13.23
Zwiefelhof,49.22,11.18
Zwiefaltendorf,48.21,9.51
Zwiefalten,48.23,9.46
Zwiedorf,53.69,13.05
Zwickgabel,48.58,8.31
Zwickau,50.72,12.48
Zwethau,51.58,13.04
Zwesten,51.05,9.17
Zwernberg,49.11,10.27
Zweribach,48.03,8.1
Zwergern,47.58,11.32
Zwergen,51.48,9.29
Zwergau,49.86,11.97
Zwerenberg,49.01,9.54
Zwerenberg,48.63,8.59
Zwerchstraß,48.91,10.80
Zwenzow,53.32,12.94
Zwenkau,51.21,12.33
Zweitschen,50.96,12.30
Zweinig,51.09,13.15
Zweinaundorf,51.32,12.45
Zweimen,51.36,12.13
Zweikirchen,48.48,12.13
Zweiflingen,49.32,10.37
Zweiflingen,49.25,9.51
Zweifelsheim,49.54,10.82
Zweifelscheid,50.03,6.25
Zweifelsberg,48.07,9.71
Zweifelbach,50.80,11.50
Zweifelau,49.91,11.86
Zweifall,50.71,6.25
Zweidorf,52.32,10.37
Zweibrüggen,50.93,6.10
Zweibrücken,49.24,7.36
Zweibrücken,51.40,14.70
Zweibach,50.44,12.86
Zweenfurth,51.33,12.54
Zweedorf,54.08,11.67
Zweedorf,53.43,10.63
Zweckstätt,47.90,12.04
Zweckham,47.94,12.64
Zweckel,51.59,6.98
Zwebendorf,51.50,12.09
Zwätzen,50.95,11.61
Zwalbach,49.55,6.78
Zwackau,50.76,11.80
Zwabitz,50.81,11.54
Zuzenhausen,49.29,8.82
Zuwald,48.39,8.18
Zützschdorf,51.3,11.9
Zützen,53.02,14.23
Zützen,51.94,13.64
Züttlingen,49.29,9.33
Zustorf,48.41,11.94
Züssow,53.97,13.54
Zußdorf,47.84,9.43
Züsow,53.92,11.67
Zusmarshausen,48.40,10.59
Zusenhofen,48.54,8.02
Züsedom,53.44,14.01
Zuschendorf,50.93,13.91
Züschen,51.17,9.22
Züschen,51.15,8.56
Züsch,49.65,7.0
Zusamzell,48.48,10.60
Zusamaltheim,48.53,10.63
Zurstraße,51.29,7.46
Zurow,53.86,11.61
Zurnhausen,48.43,11.77
Zurlberg,48.50,12.37
Zürkvitz,54.60,13.28
Zurheiden,50.66,7.44
Zürchel,51.61,13.84
Zürchau,50.92,12.43
Zürbach,50.55,7.82
Zunzingen,47.82,7.65
Züntersbach,50.31,9.73
Zunsweier,48.42,7.94
Zunschwitz,51.18,13.17
Zunham,47.94,12.32
Zündorf,50.86,7.04
Zumweiler,48.59,8.59
Zum Wagner,49.06,10.0
Zum Stein,48.11,9.88
Zumroda,50.89,12.50
Zumholz,48.99,10.04
Zumhof,50.72,7.33
Zumhof,49.06,12.43
Zumhof,48.88,9.54
Zumhaus,49.21,10.24
Zumberg,49.17,10.37
Zultenberg,50.05,11.31
Zulpich,50.69,6.65
Zülow,53.70,11.91
Zülow,53.57,11.27
Züllsdorf,51.63,13.11
Zulling,48.66,12.66
Züllighoven,50.61,7.15
Zülichendorf,52.11,13.02
Zühr,53.43,11.02
Zühlsdorf,52.73,13.38
Zühlitz,54.64,13.36
Zühlen,53.07,12.81
Zühlen,52.84,11.50
Zuggelrade,53.14,11.47
Zug,50.88,13.34
Zuffenhausen,48.83,9.17
Zueding,48.84,13.14
Zudar,54.26,13.35
Zückshut,49.96,10.92
Zuckelhausen,51.30,12.45
Zuchering,48.71,11.40
Zuchau,51.85,11.85
Zubzow,54.52,13.24
Zuben,47.99,9.79
Zschortau,51.47,12.35
Zschorta,50.77,12.08
Zschorno,51.57,14.66
Zschornewitz,51.71,12.39
Zschornau,51.30,14.12
Zschorna,51.39,12.80
Zschorna,51.25,13.73
Zschorna,51.15,14.62
Zschorlau,50.56,12.65
Zschorgula,51.04,11.87
Zschöppichen,50.95,12.99
Zschöpperitz,50.95,11.3
Zschoppelshain,50.99,12.83
Zschoppach,51.21,12.88
Zschopenthal,50.76,13.1
Zschöpel,50.86,12.41
Zschopau,50.74,13.07
Zschöllau,51.31,13.11
Zschölkau,51.43,12.40
Zschocken,50.68,12.66
Zschockau,51.19,12.89
Zschockau,50.48,12.25
Zschöchergen,51.35,12.15
Zschochau,51.19,13.19
Zschirla,51.12,12.84
Zschippern,50.86,12.10
Zschippach,50.91,12.15
Zschillichau,51.25,14.48
Zschießdorf,51.54,12.13
Zschiesewitz,51.75,12.41
Zschieschen,51.28,13.52
Zschieren,50.99,13.86
Zschetzsch,51.15,12.78
Zschettgau,51.46,12.55
Zschernitzsch,51.00,12.42
Zschernitzsch,50.90,12.37
Zschernitz,51.52,12.22
Zschernick,51.71,13.11
Zschernichen,50.95,12.54
Zscherneddel,51.34,12.11
Zscherne,51.58,12.33
Zscherndorf,51.61,12.26
Zscherben,51.46,11.87
Zscherben,51.33,11.96
Zschepplitz,51.14,13.08
Zschepplin,51.5,12.6
Zschepkau,51.65,12.19
Zschepen,51.50,12.35
Zschepa,51.35,13.26
Zscheiplitz,51.21,11.73
Zscheilitz,51.20,13.35
Zscheila,51.17,13.49
Zscheckwitz,50.95,13.75
Zschechwitz,50.96,12.45
Zschauitz,51.26,13.53
Zschauitz,51.03,12.83
Zschäschütz,51.12,13.15
Zschaschelwitz,51.02,12.45
Zscharnitz,51.21,14.29
Zschannewitz,51.23,12.95
Zschannewitz,51.22,13.08
Zschaitz,51.16,13.21
Zschaiten,51.29,13.40
Zschaiga,50.93,12.48
Zschagast,51.1,12.3
Zschadrass,51.13,12.81
Zschackwitz,51.12,13.14
Zschachwitz,51.0,13.85
Zschachenmühle,50.50,11.53
Zschaagwitz,51.06,12.85
Zoznegg,47.89,9.33
Zoznegg,47.89,9.04
Zotzenheim,49.86,7.96
Zotzenbach,49.60,8.76
Zötzelhofen,48.25,11.25
Zöttnitz,50.89,11.68
Zottishofen,49.23,9.81
Zottewitz,51.24,13.44
Zottelstedt,51.05,11.49
Zöthen,51.05,11.73
Zöthain,51.18,13.33
Zossen,52.21,13.44
Zossen,50.80,12.07
Zoss,47.94,12.10
Zöschlingsweiler,48.61,10.44
Zöschingen,48.66,10.31
Zöschen,51.35,12.11
Zöschau,51.27,13.14
Zornow,54.19,12.65
Zörnitz,51.56,11.76
Zörnigall,51.86,12.75
Zornheim,49.89,8.22
Zorneding,48.08,11.82
Zorn,50.16,7.91
Zorge,51.63,10.63
Zörbitz,51.19,12.03
Zörbig,51.62,12.11
Zorbau,51.19,12.02
Zopten,50.52,11.34
Zoppoten,50.49,11.69
Zoppaten,50.02,11.69
Zopp,50.86,6.13
Zöpen,51.16,12.43
Zootzen,53.15,13.21
Zootzen,53.13,12.58
Zootzen,52.78,12.59
Zons,51.12,6.84
Zoltingen,48.72,10.51
Zollwitz,51.11,12.83
Zollstock,50.91,6.94
Zollschwitz,51.17,12.94
Zöllschen,51.27,12.11
Zöllnitz,51.01,12.81
Zöllnitz,50.86,11.63
Zöllmersdorf,51.85,13.66
Zöllmen,51.04,13.61
Zolling,48.81,13.07
Zolling,48.66,13.45
Zolling,48.45,11.76
Zollhof,49.02,9.99
Zollhaus,50.64,11.46
Zollhaus,50.28,8.06
Zollhaus,47.83,8.55
Zollgrün,50.51,11.83
Zollenspieker,53.40,10.18
Zollenreute,47.92,9.64
Zollchow,53.26,13.84
Zollchow,52.52,12.21
Zollbrunn,50.23,10.28
Zollbrück,50.48,10.69
Zollbaum,53.77,9.18
Zölkow,53.56,11.82
Zolkendorf,53.72,13.00
Zoghaus,50.66,12.12
Zoggendorf,49.86,11.15
Zogenweiler,47.83,9.50
Zogenreuth,49.70,11.65
Zodel,51.23,15.01
Zockau,51.15,14.29
Zochenreuth,49.87,11.28
Zochau,51.33,13.83
Zoblitz,51.13,14.74
Zöblitz,50.65,13.22
Zöbisch,50.48,12.45
Zöbingen,48.93,10.33
Zöbigker,51.26,12.35
Zobes,50.50,12.25
Zobersdorf,51.49,13.40
Zöberitz,51.50,12.03
Zobbenitz,52.40,11.36
Zizishausen,48.64,9.34
Zizingen,47.78,7.61
Zizenhausen,47.87,9.00
Zixdorf,52.02,12.68
Zitzschewig,51.11,13.60
Zitzschen,51.22,12.26
Zitz,52.32,12.32
Zittvitz,54.41,13.46
Zittow,53.67,11.52
Zitters,50.69,10.01
Zitterpenningshagen,54.25,13.08
Zitterhuck,51.55,6.40
Zittenfelden,49.60,9.24
Zittau,50.89,14.80
Ziswingen,48.78,10.58
Zissenhof,49.72,11.76
Zissenhausen,53.62,7.89
Zislow,53.43,12.31
Zischkowitz,51.20,14.28
Zischendorf,49.22,10.25
Zirzow,53.58,13.19
Zirzevitz,54.41,13.48
Zirtow,53.27,12.90
Zirsen,53.50,8.40
Zirre,50.93,7.55
Zirndorf,49.44,10.95
Zirndorf,49.19,10.47
Zirndorf,48.98,10.66
Zirnberg,49.07,12.60
Zirmoisel,54.50,13.33
Zirkow,54.38,13.53
Zirkow,54.36,13.32
Zirkenreuth,49.95,12.30
Zirkenbach,50.52,9.64
Zirkel,50.60,11.09
Zirchow,53.89,14.13
Zipsendorf,51.05,12.28
Zips,49.77,11.57
Zipplingen,48.92,10.40
Zippfeld,53.85,11.38
Zippern,47.88,9.49
Zippendorf,53.60,11.46
Zippelsförde,52.99,12.89
Zippelow,53.46,13.12
Zipkeleben,52.10,11.71
Zipke,54.34,12.77
Zipfen,49.82,8.91
Zinzow,53.71,13.54
Zinzenzell,49.07,12.57
Zinzendorf,48.98,12.47
Zintlhammer,49.77,11.92
Zinst,49.89,11.92
Zinskenfehn,53.27,7.72
Zinsershütten,49.65,7.02
Zinse,51.00,8.21
Zinsdorf,51.54,13.33
Zinow,53.36,13.17
Zinnwald-Georgenfeld,50.73,13.76
Zinnwald,50.73,13.76
Ostseebad Zinnowitz,54.07,13.91
Zinnitz,51.79,13.84
Zinneberg,47.99,11.88
Zinndorf,52.50,13.92
Zinnberg,50.91,12.68
Zinnberg,50.44,12.51
Zinna,51.56,12.95
Zinna,50.92,11.73
Zinklmiltach,48.39,11.58
Zinken,48.13,7.97
Zinkenried,49.00,13.05
Zinken,48.10,8.01
Zinhain,50.64,7.92
Zingst,54.43,12.68
Zingst,51.29,11.56
Zingsheim,50.51,6.65
Zindelstein,47.98,8.38
Zimpel-Tauer,51.31,14.63
Zimpel,51.32,14.61
Zimmritz,50.85,11.49
Zimmert,54.56,9.86
Zimmersrode,51.00,9.22
Zimmerseifen,50.99,7.64
Zimmersdorf,49.15,10.48
Zimmerschied,50.35,7.78
Zimmern unter der Burg,48.22,8.71
Zimmernsupra,50.98,10.86
Zimmern ob Rottweil,48.16,8.59
Zimmern,51.08,10.57
Zimmern,51.0,11.63
Zimmern,49.89,9.59
Zimmern,49.59,9.78
Zimmern,49.43,9.37
Zimmern,48.92,10.98
Zimmern,48.81,9.87
Zimmern,48.55,7.98
Zimmern,48.34,12.92
Zimmern,48.32,8.94
Zimmern,47.93,8.70
Zimmering,49.16,12.48
Zimmerholz,47.86,8.74
Zimmerhof,49.25,9.11
Zimmerberg,48.94,9.97
Zimmerberg,47.7,9.9
Zimmerberg,47.66,9.60
Zimmerbach,48.86,9.77
Zimmerau,50.26,10.58
Zimmerau,48.96,13.23
Zimmerau,47.65,12.14
Zimkendorf,54.28,12.96
Ziltendorf,52.20,14.62
Zilshausen,50.11,7.38
Zilsdorf,50.27,6.73
Zilly,51.94,10.82
Zillofen,48.36,11.41
Zillishausen,48.13,9.94
Zilling,48.78,13.08
Zillhausen,48.25,8.92
Zillhardtshof,48.87,9.32
Zillham,47.98,12.26
Zillendorf,49.35,12.66
Zillenberg,48.29,11.07
Zillbeck,52.38,11.16
Zillbach,50.70,10.29
Zillbach,50.42,9.72
Zilgendorf,50.16,10.96
Zilchenricht,49.38,12.18
Ziggelmark,53.50,11.04
Zifling,49.23,12.67
Ziezow,52.13,12.71
Zieverich,50.95,6.62
Zietsch,51.31,13.9
Zietlitz,53.63,12.34
Zietlitz,53.57,11.54
Ziethnitz,52.82,11.12
Ziethen,53.88,13.67
Ziethen,53.7,10.81
Zietensaue,52.76,12.46
Zietenhof,51.56,12.90
Zießau,52.90,11.46
Zieslübbe,53.47,11.77
Ziesendorf,53.99,12.03
Zieselsmaar,50.83,6.78
Zieschütz,51.17,14.48
Ziesar,52.26,12.28
Zierzow,53.42,12.56
Zierzow,53.28,11.68
Ziertheim,48.65,10.38
Zierstorf,53.80,12.46
Zierow,53.92,11.37
Zierolshofen,48.60,7.90
Zierling,49.06,12.74
Zierke,53.37,13.04
Zieritz,53.06,10.79
Ziering,48.60,13.65
Zierenberg,51.36,9.30
Zierbach,48.96,13.04
Zierau,52.75,11.31
Ziepel,52.49,11.36
Ziepel,52.14,11.87
Zienken,47.84,7.57
Zienau,52.51,11.42
Ziemkendorf,53.31,14.01
Ziemitz,54.02,13.77
Ziemetshausen,48.29,10.53
Ziemendorf,52.91,11.48
Zielow,53.35,12.68
Ziellechen,47.90,12.15
Zielitz,52.28,11.67
Zielheim,49.27,12.10
Zielfingen,48.04,9.27
Zielberg,48.74,13.70
Zieko,51.91,12.41
Ziehring,49.18,12.51
Ziegwebersberg,51.11,7.00
Ziegra,51.10,13.05
Ziegolz,47.92,9.85
Zieglstadl,48.86,12.89
Zieglstadl,48.69,12.12
Zieglreuth,48.60,11.90
Zieglhof,49.06,11.96
Zieglertal,51.08,14.51
Ziegler,48.0,10.36
Ziegetsdorf,48.99,12.07
Ziegerhof,48.77,9.75
Ziegenrück,50.60,11.64
Ziegenkrug,54.11,12.01
Ziegenhocken,52.54,8.97
Ziegenhardt,50.85,7.55
Ziegenhals,52.35,13.67
Ziegenhain,51.13,13.30
Ziegenhain,50.91,11.62
Ziegenhain,50.91,9.23
Ziegenhain,50.68,7.53
Ziegenhahn,50.67,7.52
Ziegenhagen,52.72,11.77
Ziegenhagen,51.36,9.75
Ziegendorf,53.29,11.81
Ziegendorf,49.29,10.74
Ziegenburg,50.11,11.65
Ziegenberg,52.04,10.01
Ziegenberg,51.36,9.76
Ziegenberg,50.36,8.63
Ziegenbach,49.69,10.36
Ziegelwiese,51.32,8.40
Ziegelweiler,48.44,10.00
Ziegelwasen,48.23,8.85
Ziegelviehbig,50.88,14.76
Ziegelstein,49.48,11.10
Ziegelstadl,47.93,11.09
Ziegelstadel,48.31,12.28
Ziegelstadel,48.15,11.83
Ziegelstadel,48.06,9.93
Ziegelsham,48.26,12.31
Ziegelsdorf,52.26,11.98
Ziegelsdorf,50.19,10.92
Ziegelscheune,51.55,13.48
Ziegelscheune,51.51,13.75
Ziegelsambach,49.77,10.58
Ziegelrode,51.55,11.46
Ziegelroda,51.33,11.46
Ziegelreuth,48.59,13.50
Ziegelreuth,47.94,12.11
Ziegelplatz,47.85,7.78
Ziegelnöbach,48.47,11.45
Ziegelkamp,53.68,9.16
Ziegelkamp,53.51,10.26
Ziegelhütten,50.37,11.96
Ziegelhütten,50.12,11.44
Ziegelhütte,50.43,9.89
Ziegelhütte,50.34,9.71
Ziegelhütte,50.33,9.38
Ziegelhütte,50.28,9.58
Ziegelhütte,49.99,12.06
Ziegelhütte,49.48,12.15
Ziegelhütte,49.39,11.35
Ziegelhütte,49.36,12.4
Ziegelhütte,49.28,10.28
Ziegelhütte,48.46,9.86
Ziegelhütte,48.40,8.66
Ziegelhof,53.09,11.45
Ziegelhof,48.01,9.54
Ziegelhof,47.85,7.71
Ziegelheim,50.93,12.55
Ziegelheide,51.37,6.38
Ziegelhäuser,48.40,9.48
Ziegelhausen,49.42,8.75
Ziegelhaus,49.27,10.30
Ziegelhaus,47.63,9.53
Ziegelerden,50.23,11.30
Ziegelei,52.78,11.36
Ziegelbronn,49.09,9.57
Ziegelberg,51.08,14.25
Ziegelberg,48.40,11.45
Ziegelberg,47.85,10.24
Ziegelbach,47.89,9.86
Ziegelanger,49.99,10.61
Ziegel,50.51,9.66
Zieflesberg,48.76,8.43
Zieckau,51.89,13.64
Ziebigk,51.85,12.21
Ziebigk,51.70,12.08
Ziebach,50.94,9.88
Ziddorf,53.67,12.54
Zidderich,53.60,12.01
Zickra,50.74,12.13
Zickra,50.66,11.90
Zickhusen,53.75,11.41
Zickeritz,51.63,11.73
Zicker,54.25,13.39
Zichtow,52.92,12.19
Zichtau,52.60,11.29
Zichow,53.18,14.03
Zicherie,52.57,10.93
Zibühl,53.79,11.99
Zibberick,52.37,11.77
Ziallerns,53.64,7.87
Zeyern,50.26,11.40
Zewen-Oberkirch,49.71,6.58
Zewen,49.71,6.57
Zeven,53.29,9.27
Zeuzleben,49.97,10.07
Zeutsch,50.75,11.50
Zeuthen,52.36,13.61
Zeutern,49.17,8.67
Zeust,52.13,14.26
Zeunitz,51.21,12.81
Zeulsdorf,50.84,12.04
Zeulenroda,50.65,11.98
Zeulenreuth,49.88,11.76
Zeughaus,50.44,12.50
Zeuendorf,51.64,12.03
Zeuden,52.02,12.73
Zeuckritz,51.39,13.06
Zeuchfeld,51.23,11.82
Zeublitz,50.13,11.20
Zeubelried,49.68,10.08
Zeubach,49.84,11.37
Zetzsch,51.16,12.10
Zettweil,51.00,12.25
Zettmeisel,50.03,11.58
Zettmannsdorf,49.86,10.65
Zettlitz,51.06,12.83
Zettlitz,50.19,11.47
Zettlitz,50.11,11.76
Zettlitz,49.99,11.59
Zettlitz,49.77,11.85
Zettlarsgrün,50.37,12.03
Zettl,48.22,12.18
Zettisch,49.24,12.84
Zettingen,50.23,7.2
Zetteritz,51.02,12.88
Zettemin,53.64,12.83
Zettelsdorf,49.87,10.76
Zetta,51.11,13.33
Zetschdorf,51.00,12.14
Zethlingen,52.70,11.29
Zethau,50.77,13.38
Zetel,53.41,7.98
Zessmannsrieth,49.66,12.27
Zessin,54.52,13.31
Zessau,49.79,11.92
Zeselberg,49.33,7.60
Zeschwitz,51.19,12.92
Zeschnig,50.99,14.08
Zeschdorf,51.58,12.13
Zescha,51.28,14.31
Zesch,52.11,13.52
Zerzabelshof,49.44,11.12
Zersen,52.18,9.29
Zerrenthin,53.49,14.08
Zerre,51.53,14.38
Zerpenschleuse,52.85,13.52
Zernsdorf,52.30,13.69
Zernitz,52.88,12.36
Zernitz,52.01,12.08
Zernin,53.79,11.92
Zernikow,52.96,12.07
Zernien,53.06,10.88
Zernickow,53.39,13.73
Zernikow,53.09,13.09
Zernickow,52.52,14.37
Zerna,51.28,14.23
Zermützel,53.00,12.83
Zermüllen,50.29,6.91
Zerkwitz,51.86,13.93
Zerkall,50.69,6.45
Zerhusen,52.65,8.23
Zerf,49.6,6.68
Zerbst,51.96,12.08
Zerben,52.35,11.95
Zeppernick,52.12,12.02
Zeppenheim,51.30,6.75
Zeppenfeld,50.78,8.02
Zeppelinheim,50.03,8.61
Zeppelindorf,47.66,9.46
Zepkow,53.30,12.49
Zepfenhan,48.19,8.71
Zepernick,52.65,13.54
Zepelin,53.83,12.04
Zenzing,49.18,12.43
Zenting,48.8,13.26
Zentendorf,51.28,15.02
Zentbechhofen,49.76,10.89
Zens,51.93,11.72
Zennhusen,54.27,8.97
Zennewitz,51.18,12.93
Zennern,51.10,9.31
Zenkenlohe,49.90,11.79
Zengerott,51.63,7.89
Zengeröd,49.43,12.46
Zengermoos,48.27,11.74
Zengerhof,49.63,12.44
Zendscheid,50.1,6.6
Zenching,49.24,12.82
Zempow,53.20,12.73
Zempin,54.06,13.95
Zemnick,51.86,12.84
Zemmin,53.92,13.25
Zemmer,49.9,6.7
Zemitz,53.97,13.75
Zembschen,51.14,12.09
Zelz,51.61,14.76
Zelz,49.27,12.75
Zeltingen,49.95,7.01
Zeltendorf,49.18,12.84
Zellwies,47.8,11.46
Zell-Weierbach,48.47,7.98
Zell unter Aichelberg,48.64,9.57
Zellsee,47.86,11.05
Zellschen,51.09,11.97
Zellrüglingen,49.36,10.61
Zellingen,49.89,9.81
Zelliner Loose,52.74,14.33
Zell im Wiesental,47.70,7.85
Zellhub,48.41,12.78
Zellhausen,50.01,8.99
Zellhausen,48.42,11.75
Zellewitz,51.64,11.72
Zellershub,48.19,12.03
Zeller See,47.71,8.98
Zeller Schweinegg,47.61,10.56
Zellers,47.53,9.96
Zellerreit,48.02,12.14
Zellerhof,48.0,9.65
Zelleracker,48.33,8.46
Zellendorf,51.89,13.06
Zelle,50.58,12.70
Zellberg,52.38,10.53
Zell an der Speck,48.80,11.19
Zell an der Rot,48.02,10.04
Zell am Neckar,48.72,9.35
Zell am Main,49.81,9.86
Zell am Harmersbach,48.34,8.06
Zella-Mehlis,50.65,10.66
Zell am Andelsbach,47.96,9.25
Zella,50.65,10.67
Zella,51.28,10.37
Zella,51.06,13.27
Zella,50.87,9.25
Zella,50.68,11.52
Zella,50.67,10.10
Zell,49.67,8.64
Zell,50.72,9.19
Zell,50.51,9.62
Zell im Fichtelgebirge,50.13,11.82
Zell,50.09,10.24
Zell,50.02,7.18
Zell,49.96,10.56
Zell,49.72,8.99
Zell,49.64,8.13
Zell,49.35,9.94
Zell,49.14,11.18
Zell,49.07,12.79
Zell,48.99,13.28
Zell,48.98,11.59
Zell,48.97,9.46
Zell,48.90,13.13
Zell,48.74,9.64
Zell,48.71,11.24
Zell,48.69,8.06
Zell,48.62,12.02
Zell,48.53,13.19
Zell,48.49,12.76
Zell,48.49,11.41
Zell,48.39,13.28
Zell,48.20,9.50
Zell,48.17,11.00
Zell,48.09,12.09
Zell,47.98,11.44
Zell,47.89,10.20
Zell,47.86,12.02
Zell,47.69,11.31
Zell,47.60,10.58
Zell,47.57,10.02
Zeitz,51.04,12.13
Zeitlow,53.95,13.11
Zeitlofs,50.26,9.67
Zeitldorf,48.84,12.87
Zeitlarn,49.33,12.39
Zeitlarn,49.07,12.11
Zeitlarn,48.64,13.05
Zeitlarn,48.61,13.19
Zeitlarn,48.13,12.66
Zeititz,51.34,12.66
Zeithain,51.33,13.33
Zeitenbach,50.88,7.91
Zeiten,54.30,13.31
Zeißigschenkriehbig,50.86,14.76
Zeißig,51.42,14.27
Zeißholz,51.38,14.14
Zeißau,49.60,12.20
Zeislhof,48.81,12.26
Zeiskam,49.23,8.24
Zeisholz,51.36,13.89
Zeisertsweiler,47.57,9.74
Zeisenried,48.54,10.78
Zeisenbronn,49.69,10.47
Zeisdorf,51.24,11.44
Zeischa,51.50,13.42
Zeinried,49.49,12.36
Zeilsheim,50.1,8.5
Zeilling,48.50,12.75
Zeilitzheim,49.89,10.27
Zeiling,48.44,12.38
Zeiling,48.13,12.43
Zeilhofen,48.28,12.10
Zeilhard,49.84,8.79
Zeilfeld,50.41,10.63
Zeilern,48.20,11.92
Zeilding,48.33,12.0
Zeilbach,50.63,9.15
Zeilarn,48.3,12.83
Zeil,50.00,10.59
Zeil,48.56,12.86
Zieglbach,48.36,11.10
Zeigerheim,50.70,11.29
Zeidelweide,50.55,12.03
Zeickhorn,50.22,11.04
Zeichen,50.94,14.00
Zeicha,51.23,13.11
Zehringen,51.76,12.02
Zehrerhof,48.85,13.31
Zehrensdorf,52.16,13.5
Zehren,52.89,11.62
Zehren,51.20,13.40
Zeholfing,48.68,12.76
Zehntel,50.80,13.32
Zehnruthenplan,52.4,13.28
Zehnmorgan,54.35,13.45
Zehnhausen bei Wallmerod,50.46,7.93
Zehnhausen bei Rennerod,50.65,8.06
Zehnebeck,53.21,14.04
Zehna,53.71,12.13
Zehmitz,51.65,12.11
Zehmigkau,51.72,12.09
Zehmen,53.82,11.03
Zehmen,51.23,12.40
Zehma,50.92,12.44
Zehlendorf,52.43,13.25
Zehlendorf,53.86,12.27
Zehlendorf,52.78,13.38
Zehista,50.93,13.92
Zehdorf,49.13,10.34
Zehdenick,52.97,13.33
Zehbitz,51.67,12.13
Zegast,50.20,11.64
Zeez,53.96,12.14
Zeetze,53.22,10.98
Zeetze,52.94,11.01
Zeestow,52.57,12.95
Zeesen,52.27,13.63
Zeegendorf,49.87,11.06
Zedtwitz,50.36,11.90
Zedtlitz,51.10,12.51
Zedlitz,50.81,12.03
Zedlig,51.36,14.77
Zedersitz,49.99,11.29
Zedersdorf,50.24,11.15
Zeddenick,52.13,11.89
Zeddenbach,51.21,11.75
Zedau,52.79,11.72
Zeckern,49.69,10.93
Zeckerin,51.71,13.63
Zeckendorf,49.95,11.05
Zeckenberg,49.96,11.93
Zechow,53.05,12.91
Zechlinerhütte,53.15,12.87
Zechlin Dorf,53.13,12.78
Zechiner Loose,52.62,14.45
Zechin,52.60,14.45
Zeche Waltrop,51.61,7.41
Zecherin,54.07,13.80
Zecherin,53.85,13.83
Zechenwihl,47.57,8.03
Zechenhäuser,50.63,11.46
Zechendorf,50.93,13.21
Zechenbach,50.35,12.39
Zechau,51.01,12.33
Zech,50.32,12.08
Zebelin,52.99,11.01
Zazenhausen,48.84,9.19
Zävertitz,51.20,13.03
Zavelstein,48.69,8.68
Zautendorf,49.44,10.82
Zaußwitz,51.33,13.19
Zauppenberg,49.82,11.37
Zaunswinkel,51.07,6.88
Zaunröden,51.33,10.48
Zaunhaus,50.73,13.7
Zaundorf,48.67,13.16
Zaumberg,47.58,10.19
Zaulsdorf,50.42,12.23
Zaugendorf,50.04,10.87
Zaue,52.04,14.18
Zauckerode,51.01,13.63
Zauchwitz,52.21,13.05
Zauche,51.92,13.70
Zaubach,49.70,7.42
Zatzschke,50.98,13.95
Zastler,47.92,7.98
Zaßnitz,51.05,12.8
Zasenbeck,52.67,10.85
Zaschwitz,51.57,11.80
Zaschwitz,51.24,12.83
Zaschwitz,51.17,13.04
Zaschendorf,53.69,11.60
Zaschendorf,51.15,13.50
Zaschendorf,51.11,11.97
Zaschendorf,51.01,13.91
Zartwitz,53.37,12.83
Zarten,47.97,7.94
Zarrenzin,54.43,13.00
Zarrentin,54.08,12.87
Zarrentin,54.00,13.19
Zarrentin,53.92,13.75
Zarrentin,53.55,10.91
Zarrenthin,53.93,13.30
Zarrendorf,54.23,13.10
Zarpen,53.86,10.51
Zarow,53.68,13.89
Zarnitz,54.01,13.73
Zarnewenz,53.89,10.91
Zarnewenz,53.89,10.91
Zarnewanz,54.05,12.49
Zarnekow,54.35,13.63
Zarnekow,54.03,12.90
Zarnekow,53.98,13.60
Zarnekow,53.94,11.65
Zarnekow,53.90,12.89
Zarnekla,54.00,13.02
Zarnekau,54.13,10.68
Zargelitz,54.38,13.57
Zarfzow,53.99,11.68
Zarenthin,53.00,12.21
Zarenthien,53.00,10.87
Zarchlin,53.51,12.22
Zappendorf,51.51,11.79
Zappenburg,52.51,10.6
Zapkendorf,53.84,12.31
Zapfendorf,50.01,10.93
Zapel,53.55,11.66
Zapel,53.46,11.15
Zapel,53.17,11.57
Zant,49.37,11.76
Zansham,48.07,12.34
Zansebuhr,54.32,12.94
Zannau,47.68,9.7
Zanklau,48.66,12.68
Zankenhausen,48.10,11.10
Zankendorf,49.43,12.33
Zangenstein,49.39,12.30
Zangenberg,51.07,12.15
Zange,50.79,7.19
Zangberg,48.28,12.43
Zang,48.72,10.07
Zandt,49.24,10.65
Zandt,49.15,12.73
Zandt,48.92,11.49
Zandershagen,54.19,12.92
Zand,51.43,6.26
Zamdorf,48.14,11.64
Zallmsdorf,51.90,12.83
Zaitzkofen,48.83,12.21
Zaitzkofen,48.57,12.26
Zaißing,48.10,12.02
Zaißberg,47.91,12.14
Zaisertshofen,48.12,10.54
Zaisersweiher,49.00,8.86
Zaisering,47.90,12.14
Zaisenhofen,47.77,9.89
Zaisenhausen,49.36,9.83
Zaisenhausen,49.10,8.81
Zaiselham,48.06,12.69
Zainingen,48.48,9.54
Zainhammer,49.97,11.76
Zainen,48.76,8.67
Zainach,47.99,12.15
Zailach,49.34,10.48
Zaiertshofen,48.20,10.28
Zahsow,51.76,14.26
Zähringen,48.02,7.86
Zähringen,48.58,9.98
Zahrensen,53.11,9.76
Zahrensdorf,53.75,11.67
Zahrensdorf,53.39,10.80
Zahrenholz,52.64,10.43
Zahren,53.52,12.10
Zahren,53.48,12.99
Zahna,51.91,12.78
Zahmen,50.51,9.43
Zahling,48.42,11.03
Mainz-Zahlbach,49.98,8.25
Zahlbach,50.26,9.99
Zagkwitz,50.89,12.29
Zagelsdorf,51.88,13.45
Zadrau,53.04,11.17
Zadelsdorf,50.66,11.94
Zadels,47.90,10.38
Zadel,51.19,13.42
Zäckwar,51.13,11.63
Zackmünde,52.00,11.79
Zacking,47.86,12.31
Zäckericker Loose,52.78,14.22
Zachstorf,48.47,13.22
Zachow,53.45,13.05
Zachow,53.36,11.88
Zachow,52.48,12.78
Zachersdorf,48.99,12.66
Zachenöd,48.58,12.83
Zachenberg,48.96,13.0
Zachariae,53.88,13.08
Zach,47.6,11.46
Zabitz,51.78,11.92
Zabitz,51.60,11.71
Zaberfeld,49.05,8.92
Zabenstedt,51.62,11.67
Zabeltitz,51.35,13.50
Zabelsdorf,53.04,13.25
Zabakuck,52.45,12.21
Zaatzke,53.18,12.40
Zaase,54.52,13.24
Zaasch-Serbitz,51.55,12.24
Zaasch,51.55,12.27
Zaacko,51.86,13.72
Yach,48.15,8.09
Xyger,48.41,11.18
Xanten,51.65,6.45
Wymeer,53.13,7.22
Wyler,51.80,5.96
Wyk auf Föhr,54.69,8.56
Wyhra,51.07,12.51
Wyhl,48.16,7.64
Wybelsum,53.35,7.10
Wüzelbrunn,49.71,12.31
Wutzschwitz,51.19,13.14
Wutzlhofen,49.04,12.12
Wutzldorf,49.13,12.34
Wutzetz,52.80,12.58
Wutzelskühn,49.33,12.35
Wutscherogge,52.13,13.92
Wutschendorf,53.31,13.20
Wutschdorf,49.48,11.98
Wutöschingen,47.66,8.36
Wutike,53.01,12.37
Wuthenow,52.90,12.83
Wutha,50.95,10.39
Wüstwillenroth,50.42,9.32
Wustweilerhof,49.38,7.05
Wustweiler,49.39,7.03
Wustviel,49.88,10.52
Wustuben,50.26,11.89
Wustrow,53.47,13.15
Wustrow,53.22,12.96
Wustrow,53.06,11.55
Wustrow,52.92,11.12
Ferdinandshof,52.77,14.23
Wustrewe,52.69,11.30
Wustrau,52.84,12.86
Wüstmark,53.57,11.39
Wüsting,53.11,8.35
Wüstheuterode,51.31,10.06
Wüsthetzdorf,50.97,13.44
Wüstfeld,50.82,9.81
Wüstfalka,50.81,12.13
Wüstewohlde,53.58,8.90
Wusterwitz,52.38,12.4
Wüstermarke,51.81,13.60
Wustermark,52.55,12.95
Wusterhusen,54.11,13.61
Wusterhausen,52.89,12.46
Wusterdamm,52.57,12.14
Wüstenwetzdorf,50.70,11.86
Wüstenwelsberg,50.14,10.82
Wüstenweiler,49.18,10.34
Wüsten-Vahrnow,53.18,11.92
Wüstenstraße,51.15,7.03
Wüstenstein,49.85,11.25
Wüstenselbitz,50.21,11.69
Wüstenschlette,50.64,13.14
Wüstensachsen,50.50,10.00
Wüstenrot,49.08,9.46
Wustenriet,48.80,9.76
Wüstenmark,53.76,11.25
Wüstenländermoor,53.12,8.37
Wüstenjerichow,52.21,12.12
Wüstenhöfen,53.29,9.68
Wüstenhof,51.14,7.23
Wüstenhof,51.09,7.31
Wüstenhof,50.99,7.35
Wüstenherscheid,50.99,7.22
Wüstenhausen,49.07,9.27
Wüstenhain,51.71,14.12
Wüstenhain,51.00,12.57
Wüstenhagen,54.31,12.89
Wüstenfelden,49.73,10.36
Wüstenfelde,54.23,13.14
Wüstenfelde,53.94,13.14
Wüstenfeld,49.67,7.37
Wüsteney,54.07,13.14
Wüsteneutzsch,51.32,12.07
Wüstenei Mooräcker,53.26,7.47
Wüstendorf,50.06,11.32
Wüstendorf,49.36,10.56
Wustendorf,49.33,10.68
Wüstendittersdorf,50.57,11.85
Wüsten Buchholz,53.12,11.85
Wüstenbuchau,50.08,11.34
Wüstenbuch,49.79,10.58
Wüstenbrunn,50.21,12.03
Wüstenbruck,49.28,10.50
Wüstenbrand,50.80,12.75
Wüstenbilow,54.05,13.09
Wüstenberg,48.56,13.73
Wüsten-Barenthin,53.04,12.42
Wüstenbachhof,48.96,9.37
Wüstenau,49.14,10.17
Wüstenahorn,50.24,10.94
Wüsten,52.10,8.78
Wüstemünte,51.11,7.36
Wüstems,50.25,8.38
Wüstemark,51.93,12.75
Wüst Eldena,54.11,13.16
Wüste Kunersdorf,52.40,14.51
Wüstbuch,50.21,11.36
Wust,52.55,12.11
Wust,52.41,12.61
Wußwerk,51.92,14.05
Wussentin,53.85,13.49
Wusseken,53.75,13.65
Wussegel,53.13,11.08
Wusse,54.45,13.15
Wuschlaub,51.18,12.13
Wüschheim,50.68,6.81
Wüschheim,50.01,7.41
Wuschewier,52.65,14.26
Wüscheid,50.54,7.43
Würzweiler,49.65,7.86
Wurzhof,49.31,11.37
Wurzen,51.37,12.73
Wurzelbach,49.73,8.71
Wurzelbach,49.45,7.13
Würzburg,49.79,9.95
Würzberger Eutergrund,49.61,9.06
Würzberg,49.65,9.08
Wurzbach,50.46,11.53
Würzbach,48.72,8.62
Wurzach,47.99,12.11
Wurz,49.77,12.18
Wurz,49.13,12.93
Württemberger Hof,49.06,9.58
Würtingen,48.45,9.34
Wurthfleth,53.29,8.52
Wursterheide,53.77,8.63
Würselen,50.81,6.13
Würschwitz,51.26,12.80
Würschnitz,51.23,13.79
Wurschen,51.19,14.57
Würrich,49.98,7.3
Wurp,51.56,12.05
Würnsreuth,49.89,11.68
Wurmstorf,48.37,13.22
Wurmsham,48.35,12.33
Wurmsgefäll,49.78,12.24
Würmsee,52.52,9.84
Wurmsdorf,47.84,12.26
Wurms,47.83,10.19
Wurmrauch,49.46,11.60
Wurmloh,49.98,11.94
Wurmlingen,48.50,8.96
Wurmlingen,48.0,8.78
Wurmfeld,48.51,8.84
Würmertsham,48.07,12.23
Würmersheim,48.93,8.25
Wurmdorf,48.75,12.12
Wurmberg,48.86,8.81
Wurmansau,47.64,11.02
Wurmannsreit,48.35,13.03
Wurmannsquick,48.35,12.78
Würm,50.99,6.17
Würm,48.85,8.73
Wurlitz,50.25,11.98
Wurlgrund,53.22,13.28
Wurgwitz,51.02,13.62
Würglberg,48.71,12.61
Würges,50.28,8.27
Würgendorf,50.75,8.12
Würgau,49.97,11.08
Würgassen,51.65,10.41
Würflau,51.77,12.05
Würfelsdobl,48.54,13.28
Würdinghausen,51.08,8.12
Würding,48.52,13.22
Würding,48.35,13.34
Würdenhain,51.47,13.45
Würden,51.03,7.44
Würchwitz,51.01,12.22
Würchhausen,51.03,11.68
Wurbis,51.08,14.48
Wurbach,50.23,11.41
Würau,47.76,12.76
Wuppertal,51.27,7.16
Wupperhof,51.13,7.08
Wüppelser Altendeich,53.64,7.99
Wüppels,53.63,7.97
Wunstorf,52.42,9.43
Wunsiedel,50.03,12.00
Wünsdorf,52.16,13.47
Wunschwitz,51.08,13.36
Wünschmichelbach,49.51,8.74
Wunschhausen,51.4,14.66
Wünschensuhl,50.92,10.15
Wünschen-Moos,50.50,9.42
Wünschendorf,51.35,11.85
Wünschendorf,51.01,13.95
Wünschendorf,50.88,12.49
Wünschendorf,50.79,12.09
Wünschendorf,50.74,13.17
Wunschenberg,49.90,11.95
Wunscha,51.40,14.66
Wünricht,49.38,11.47
Wünnenberg,51.52,8.69
Wunne,51.45,7.77
Wünn,49.34,11.49
Wunkendorf,50.04,11.25
Wundsheim,49.36,12.25
Wunderthausen,51.09,8.51
Wundersleben,51.15,11.03
Wundersdorf,48.46,11.28
Wunderbüttel,52.69,10.66
Wunderburg,52.93,8.53
Wunder,48.73,12.49
Wunder,48.58,12.57
Wundenbach,50.10,11.76
Wunau,49.94,11.61
Wümmingen,53.07,9.15
Wummensiede,53.15,8.76
Wümme,53.24,9.61
Wümbach,50.69,10.98
Wulzen,52.81,9.13
Wulting,49.20,12.58
Wulsdorf,53.50,8.60
Wülscheid,50.66,7.33
Wulsbüttel,53.31,8.66
Wulreiching,48.84,13.08
Wülpke,52.23,9.02
Wülpen,52.27,12.16
Wulmstorfer Moor,53.46,9.78
Wulmstorf,53.44,9.80
Wulmstorf,52.93,9.10
Wulmersreuth,50.19,11.83
Wülmersen,51.60,9.43
Wulmenau,53.76,10.51
Wulm,50.77,12.49
Wüllmersen,52.72,10.94
Wulmeringhausen,51.31,8.48
Wüllersleben,50.81,11.07
Wüllersdorf,49.46,11.57
Wullenstetten,48.31,10.06
Wüllenrath,50.91,6.58
Wullendorf,49.08,12.60
Wüllen,52.06,6.97
Wullen,51.45,7.35
Wullbrandt,53.20,8.73
Wulksfelde,53.71,10.11
Wulkow,52.99,12.48
Wulkow,52.92,12.90
Wulkow,52.56,14.23
Wulkow,52.40,14.46
Wülknitz,51.36,13.4
Wulkersdorf,49.56,10.83
Wulkersdorf,49.15,12.29
Wulkenzin,53.54,13.16
Wulkau,52.76,12.07
Wulften,52.63,7.98
Wulften,52.30,8.22
Wulften,51.65,10.17
Wülfte,51.43,8.58
Wulfstorf,53.17,10.52
Wulfsode,53.06,10.23
Wulfsmoor,53.91,9.72
Wulfskuhl,53.46,11.00
Wulfshof,53.46,10.2
Wulfshagenerhütten,54.38,9.96
Wulfshagen,54.38,10.01
Wulfsfelde,53.94,10.52
Wulfsen,53.3,10.15
Wulfsdorf,54.01,10.64
Wulfsdorf,53.81,10.68
Wulfsdorf,53.65,10.21
Wulfsberg,54.30,13.31
Wulfsberg,53.12,9.90
Wulfsahl,53.32,11.80
Wulfringsen,51.42,7.69
Wulfringhausen,51.46,7.91
Wülfringhausen,50.95,7.54
Wülfrath,51.28,7.03
Wülflingen,50.03,10.47
Wülfinghausen,52.14,9.66
Wülfingerode,51.40,10.51
Wülfingen,52.15,9.74
Wulfing,49.21,12.56
Wulfhorst,51.78,8.41
Wulfhoop,52.97,8.75
Wulfhagen,52.40,9.04
Wulfhagen,52.35,9.16
Wulfeshohl,51.27,7.25
Wulfertshausen,48.38,10.98
Wulferstedt,52.01,11.13
Wülfersreuth,50.05,11.74
Wülfershausen,50.84,11.08
Wülfershausen,50.33,10.34
Wülfershausen,50.05,9.99
Wulfersdorf,53.24,12.41
Wulfersdorf,52.14,14.11
Wülferode,52.32,9.84
Wülferheide,52.04,8.71
Wulferdingsen,52.25,8.74
Wulferding,52.70,8.70
Wülfer,52.04,8.72
Wülfentrup,52.00,9.05
Wulfenau,52.69,8.04
Wulfen,54.40,11.15
Wulfen,51.81,11.93
Wulfen,51.71,7.01
Wulfelade,52.57,9.50
Wülfel,52.32,9.77
Wulbergsheide,52.23,8.27
Wuitz,51.05,12.25
Wuischke,51.20,14.65
Wuischke,51.13,14.54
Wuhsen,51.09,13.37
Wührden,53.17,8.85
Wühnried,48.93,12.99
Wuhnitz,51.19,13.24
Wühn,48.88,12.97
Wuhlhorst,52.4,13.75
Wuhlheide,52.46,13.55
Wuhlgarten,52.51,13.56
Wuhlenburg,53.42,10.10
Wuhden,52.47,14.56
Wuchzenhofen,47.81,10.07
Wüchern,49.22,9.62
Wubrigsberg,52.68,14.26
Wrohm,54.21,9.4
Wrohe,54.26,9.95
Wroge,52.90,9.92
Wrodow,53.56,13.07
Wrixum,54.69,8.54
Wrist,53.93,9.76
Wrissenberg,52.80,8.95
Wrisse,53.42,7.59
Wrisbergholzen,52.02,9.91
Wriezen,52.72,14.13
Wriedel,53.03,10.29
Wrexen,51.50,8.99
Wrestedt,52.90,10.57
Wrescherode,52.86,10.05
Wremertief,53.64,8.50
Wremerbüttel,53.64,8.50
Wremen,53.65,8.51
Wreechen,54.33,13.46
Wredenhagen,53.29,12.51
Wrechen,53.37,13.54
Wraust,53.42,10.14
Wrantepott,53.39,7.28
Wrangelsburg,54.01,13.59
Wraggenort,53.11,8.33
Wrack,53.98,9.7
Wozinkel,53.50,11.89
Wozeten,53.91,12.43
Woxdorf,53.40,9.95
Wotzmannsreut,48.75,13.58
Wotzmannsdorf,48.84,13.06
Wotzmannsdorf,48.65,13.44
Wotzing,48.69,13.55
Wotzendorf,49.99,11.21
Wötzelsdorf,50.20,11.39
Wotzdorf,48.64,13.60
Wotrum,53.78,12.46
Wotersen,53.54,10.60
Wotenitz-Hof,53.83,11.18
Wotenitz,53.83,11.18
Wotenick,53.93,12.98
Wostevitz,54.49,13.56
Wöstendöllen,52.81,8.34
Wössingen,49.01,8.60
Wössingen,48.90,10.39
Woserow,53.82,13.73
Woserin,53.66,12.00
Woschkow,51.61,14.04
Wöschbach,49.00,8.56
Worzeldorf,49.37,11.09
Wörthsee,48.06,11.20
Wörth an der Isar,48.62,12.33
Wörth an der Donau,49.00,12.40
Wörth am Rhein,49.04,8.25
Wörth am Main,49.79,9.15
Worth,53.46,10.41
Worth,52.26,8.59
Worth,51.21,7.65
Wörth,48.59,13.34
Wörth,48.58,13.40
Wörth,48.27,12.28
Wörth,48.16,12.31
Wörth,47.58,10.62
Wortelstetten,48.58,10.75
Wört,48.65,8.16
Wört,49.03,10.27
Wörsdorf,50.52,7.94
Wörsdorf,50.24,8.25
Wörschweiler,49.28,7.31
Wörschhausen,47.92,11.55
Wörsbach,49.55,7.66
Wörrstadt,49.84,8.12
Worringen,51.06,6.85
Worpswede,53.21,8.93
Worpheim,53.19,8.89
Worphausen,53.18,8.94
Wörpen,51.92,12.50
Wörpedorf,53.18,8.99
Wörpedahl,53.21,8.90
Wornstorf,48.58,12.43
Wörnstorf,48.44,12.21
Wörnsmühl,47.76,11.90
Wörnitzstein,48.73,10.72
Wörnitzostheim,48.83,10.64
Wörnitzhofen,49.04,10.45
Wornfeld,48.95,10.65
Wörnershof,48.71,9.43
Wörnersberg,48.56,8.56
Wörnern,47.75,11.47
Worndorf,47.98,8.99
Wörnbrunn,48.03,11.54
Wormsthal,52.25,9.26
Wormstedt,51.03,11.59
Wormsleben,51.50,11.62
Wormshöft,54.70,9.98
Wormsdorf,52.13,11.19
Worms,49.63,8.35
Wörmlitz-Böllberg,51.45,11.93
Wörmlitz,52.17,11.84
Wormlage,51.60,13.90
Wormersdorf,50.60,6.98
Wörmersdorf,48.94,11.21
Wormeln,51.47,9.13
Wörme,53.26,9.84
Wormbach,51.16,8.26
Worm,50.88,6.08
Wörlsdorf,50.26,11.18
Wörlitz,51.84,12.42
Wörlham,47.98,12.19
Wörleschwang,48.43,10.59
Workerszell,48.92,11.15
Woringen,47.91,10.2
Worin,52.52,14.27
Wörglham,47.85,12.58
Worfelden,49.92,8.55
Wöresbach,48.47,11.19
Wörderfeld,51.90,9.31
Wörden,51.31,7.60
Wördeholz,52.09,9.25
Wörchem,51.54,6.35
Wörbzig,51.71,11.89
Worbscheid,51.10,7.79
Wörblitz,51.66,12.85
Worblingen,47.72,8.86
Worbis,51.41,10.36
Woquard,53.43,7.08
Wöpse,52.81,9.02
Woppmannszell,49.08,12.50
Woppmannsdorf,49.14,12.50
Woppmannsdorf,49.12,12.35
Woppmannsberg,49.13,12.42
Wöpplinsberg,48.13,7.85
Wopping,48.40,13.19
Woppenthal,49.43,11.64
Woppenroth,49.86,7.41
Woppenrieth,49.68,12.33
Woppenrieth,49.56,12.29
Woppenhof,49.56,12.21
Wöplitz,52.83,12.12
Wöpkendorf,54.12,12.50
Wöpel,52.76,11.09
Wootz,53.06,11.35
Woosten,53.56,12.11
Woosmer Hof,53.21,11.19
Woosmer,53.20,11.18
Woorke,54.46,12.38
Woof,51.15,6.32
Wonsheim,49.78,7.96
Wonsees,49.97,11.30
Wonnitz,51.05,11.72
Wonnental,48.18,7.76
Wönkhausen,51.23,7.38
Wonfurt,50.01,10.46
Wondrebhammer,49.90,12.39
Wondreb,49.90,12.38
Womrath,49.91,7.45
Wommen,51.01,10.12
Wommelshausen,50.76,8.49
Womelsdorf,51.01,8.26
Wombach,49.98,9.57
Wombach,48.65,11.78
Wölzow,53.49,11.12
Wolzig,52.26,13.83
Wolzhausen,50.86,8.47
Wolzburg,49.77,7.08
Woltzeten,53.41,7.09
Woltwiesche,52.20,10.27
Woltrup,52.53,7.94
Woltringhausen,52.55,8.92
Woltow,53.98,12.52
Woltorf,52.30,10.30
Woltmershauser Vorstadt,53.08,8.76
Wöltingerode,51.95,10.53
Wolthusen,53.37,7.23
Wolthof,54.01,12.98
Wolthausen,52.63,7.85
Wolthausen,52.69,9.98
Woltersmühlen,54.06,10.66
Wolterslage,52.81,11.85
Woltershausen,51.98,9.95
Woltershagen,54.23,13.18
Woltersdorfer Schleuse,52.43,13.76
Woltersdorf,53.58,10.63
Woltersdorf,53.17,14.21
Woltersdorf,52.95,11.21
Woltersdorf,52.66,13.38
Woltersdorf,52.45,13.76
Woltersdorf,52.40,12.37
Woltersdorf,52.15,11.77
Woltersdorf,52.11,13.20
Woltersdorf,51.92,12.74
Woltersburg,52.98,10.61
Wolteritz,51.45,12.33
Wolterdingen,53.03,9.83
Wolterdingen,47.96,8.42
Wöltendorf,49.24,10.71
Woltem,52.96,9.71
Wölsting,49.20,12.73
Wolsroi,54.78,9.76
Wölsreeg,50.62,7.39
Wolsier,52.71,12.26
Wölsickendorf,52.73,13.93
Wolsfelderberg,49.90,6.44
Wolsfeld,49.90,6.46
Wölsendorf,49.40,12.16
Wölsenberg,49.42,12.17
Wolsdorf,52.19,10.93
Wolsdorf,50.79,7.22
Wölschendorf,53.81,11.07
Wölsauerhammer,50.00,12.12
Wölsau,50.00,12.11
Wölpsche,53.21,8.60
Wölpke,52.18,8.83
Wölpinghausen,52.41,9.23
Wolpertswende,47.9,9.61
Wolpertstetten,48.66,10.61
Wolpertsheim,47.89,9.74
Wolpertshausen,49.16,9.84
Wolpertsdorf,49.14,9.82
Wolpersreuth,50.08,11.36
Wolperode,51.88,10.05
Wolperndorf,50.91,12.63
Wölpern,51.43,12.58
Wolperdorf,50.02,6.23
Wolperath,50.83,7.32
Wölpe,52.66,9.25
Wolpadingen,47.69,8.10
Wolnzach,48.60,11.62
Wolnhofen,48.64,11.45
Wölmsdorf,51.97,12.96
Wolmirstedt,52.24,11.62
Wolmirsleben,51.95,11.48
Wolmirshorst,52.48,11.00
Wölmersen,50.71,7.6
Wolmersdorf,54.08,9.11
Wölm,49.78,11.31
Wollup,52.62,14.41
Wollstorf,48.43,13.30
Wollstein,51.14,9.80
Wöllstein,49.81,7.96
Wöllstein,48.90,9.96
Wollseifen,50.58,6.42
Wollsdorf,51.18,13.00
Wöllsdorf,51.12,13.03
Wollschow,53.40,14.19
Wollscheid,50.44,7.14
Wölls,51.53,12.13
Wollrode,51.21,9.51
Wöllriederhof,49.79,10.00
Wöllnitz,50.90,11.59
Wöllnau,51.54,12.70
Wöllmetzhofen,49.07,11.04
Wollmesheim,49.18,8.07
Wollmershausen,49.17,10.03
Wollmerschied,50.11,7.85
Wollmering,48.72,13.18
Wollmering,48.69,13.27
Wollmerath,50.15,6.98
Wöllmen,51.41,12.58
Wollmatingen,47.69,9.14
Wollmar,50.97,8.68
Wollmannsdorf,49.06,11.83
Wöllmannsbach,49.27,12.05
Wollkofen,48.51,12.31
Wöllkam,47.82,11.91
Wollishausen,48.32,10.70
Wollingst,53.47,8.85
Wölling,48.29,12.14
Wollin,54.65,13.37
Wollin,53.31,14.21
Wollin,53.27,14.07
Wollin,52.28,12.46
Wöllhausen,48.58,8.67
Wollham,48.38,13.32
Wolletz,53.02,13.90
Wolletsthal,49.14,12.48
Wollersum,54.33,8.99
Wollerstorf,52.75,10.67
Wollersleben,51.43,10.72
Wöllershof,49.75,12.17
Wöllersheim,51.99,10.01
Wollersheim,50.67,6.56
Wollershausen,51.6,10.25
Wollersdorf,49.29,10.85
Wollersdorf,48.96,12.65
Wollersdorf,48.52,11.87
Wöllersdorf,48.34,12.60
Wöllersberg,51.11,7.21
Wollerding,48.34,12.39
Wollenzhofen,49.33,11.80
Wollenthin,53.32,13.91
Wollenrade,52.73,11.64
Wollenhagen,52.60,11.58
Wollendorf,50.45,7.42
Wollenberg,52.72,13.95
Wollenberg,50.48,6.48
Wollenberg,49.29,9.03
Wollbrandshausen,51.58,10.16
Wollbach bei Bad Kissingen,50.27,10.00
Wollbach,50.36,10.23
Wollbach,48.41,10.58
Wollbach,47.67,7.65
Wollau,49.76,11.96
Wölland,49.21,12.05
Wollah,53.20,8.68
Wollaberg,48.72,13.67
Wolkwitz,53.78,12.93
Wolkshausen,49.62,9.97
Wolkramshausen,51.42,10.73
Wolkow,53.89,12.97
Wolkow,53.65,13.16
Wölkisch,51.22,13.36
Wölkham,48.12,12.55
Wölkham,47.96,12.26
Wolketsweiler,47.77,9.49
Wolkertshofen,48.79,11.26
Wolkertsham,48.36,13.00
Wolkersfelden,49.38,10.04
Wölkersdorf,49.76,11.71
Wölkersdorf,49.16,12.90
Wolkersdorf,47.95,12.77
Wolkersdorf,47.88,12.60
Wolkering,48.93,12.12
Wolkering,47.87,12.18
Wolkerding,47.98,12.04
Wolkenwehe,53.81,9.35
Wolkenstein,50.65,13.07
Wolkenstein,49.75,11.24
Wolkenhof,48.98,9.57
Wölkendorf,50.00,11.17
Wolkenburg,52.76,7.43
Wolkenburg,50.89,12.67
Wolkenberg-Ausbau,51.6,14.26
Wolkenberg,51.60,14.25
Wolkenberg,47.75,10.40
Wolken,53.83,12.00
Wolken,50.33,7.46
Wölkau,51.31,12.06
Wölkau,51.15,14.24
Wolkau,51.08,13.29
Wölkau,50.97,13.83
Wolkar,48.65,13.57
Wolgasterfähre,54.05,13.79
Wolgast,54.05,13.77
Wolfzennen,47.65,9.53
Wolfterode,51.22,9.91
Wölfterode,51.02,10.00
Wolfswinkel,51.87,12.84
Wolfstempel,50.61,13.46
Wolfsteinerau,48.58,12.25
Wolfstein,49.58,7.60
Wolfstein,49.29,11.49
Wolfstein,48.86,12.87
Wolfstein,48.81,13.56
Wolfstange,53.04,7.92
Wolfstall,51.12,7.09
Wolfsstraße,53.28,8.28
Wolfsstaud,50.39,12.00
Wolfsruh,53.05,13.08
Wolfsried,47.57,10.01
Wolfsricht,49.24,11.35
Wolfspfütz,50.56,12.33
Wolfsort,51.07,7.25
Wolfsölden,49.29,9.77
Wolfsölden,48.91,9.35
Wolfsöd,48.50,13.02
Wolfsöd,47.78,11.5
Wolfsmünster,50.09,9.73
Wolfslohe,49.80,11.54
Wolfsloch,50.14,11.18
Wolfslake,52.70,13.04
Wolfskuhle,51.23,7.20
Wolfskrug,54.45,9.64
Wolfskreut,49.33,10.06
Wolfskofen,48.98,12.25
Wolfskehlen,49.85,8.49
Wolfskaute,50.89,8.90
Wolfsittard,51.17,6.37
Wolfshoven,50.92,6.41
Wolfshöhe,49.54,11.32
Wolfshof,48.56,11.34
Wolfsheim,49.87,8.03
Wolfshausen,50.73,8.73
Wolfshausen,48.68,11.88
Wolfshain,51.57,14.58
Wolfshain,51.32,12.55
Wolfshain,50.59,12.03
Wolfshahn,51.23,7.13
Wolfshagen,54.22,12.84
Wolfshagen,53.43,13.65
Wolfshagen,53.14,12.01
Wolfshagen,51.90,10.31
Wolfsgrund,50.77,13.41
Wolfsgrün,50.51,12.61
Wolfsgrub,48.53,12.42
Wolfsgrub,47.68,11.78
Wolfsgefärth,50.81,12.06
Wolfsgasse,48.64,12.64
Wolfsgarten,52.46,13.59
Wolfsfelde,52.07,11.63
Wolfsfeld,49.40,11.69
Wolfsegg,49.10,11.97
Wolfsegg,48.41,12.60
Wolfsdorf,54.16,12.89
Wolfsdorf,52.35,11.06
Wolfsdorf,50.11,11.03
Wolfsdorf,48.64,12.70
Wolfschüsser,48.49,13.06
Wolfschlugen,48.65,9.28
Wolfscheiben,48.53,13.07
Wolfsburg-Unkeroda,50.93,10.26
Wolfsburg,52.42,10.78
Wolfsburg,50.93,10.26
Wolfsbühl,50.01,12.25
Wolfsbühl,49.02,10.40
Wolfsbuch,49.41,10.12
Wolfsbuch,48.97,11.56
Wolfsbruchermoor,53.74,9.31
Wolfsbruch,53.74,9.33
Wolfsbronn,49.01,10.79
Wolfsberg,47.88,12.38
Wolfsberg,54.05,12.27
Wolfsberg,51.55,11.09
Wolfsberg,50.78,10.36
Wolfsberg,50.64,13.11
Wolfsberg,49.68,11.31
Wolfsberg,48.54,11.43
Wolfsberg,48.37,10.58
Wolfsberg,48.34,12.47
Wolfsberg,48.00,12.33
Wolfsberg,47.80,9.55
Wolfsbehringen,51.00,10.49
Wolfsbach,49.90,11.60
Wolfsbach,49.47,12.06
Wolfsbach,49.36,11.91
Wolfsbach,48.58,12.28
Wolfsau,49.31,10.21
Wolfsau,49.25,10.86
Wolfsanger,51.33,9.54
Wolfsacker,48.68,12.48
Wolfring,49.41,12.04
Wolfratz,47.61,9.66
Wolfratshausen,47.91,11.42
Wolframshof,49.83,11.88
Wolframs-Eschenbach,49.22,10.72
Wolframsdorf,50.75,12.24
Wolfrain,48.06,12.13
Wölfnitz,51.03,13.67
Wolfmannshausen,50.42,10.45
Wolfmannsgehau,51.08,10.16
Wölflkofen,48.66,12.19
Wölflkofen,48.54,12.24
Wölfl,47.76,11.36
Wölfis,50.81,10.78
Wolfis,47.61,10.30
Wölfing,48.47,11.69
Wolfing,48.39,13.32
Wolfholz,47.84,10.49
Wolfhagen,51.32,9.17
Wolfhagen,51.12,6.92
Wolfhag,48.54,8.08
Wolfgruben,50.87,8.54
Wolfgrub,48.21,12.37
Wolfgrub,47.94,10.99
Wolfgelts,47.75,9.89
Wolfgarten,50.59,6.49
Wolfgangshof,49.40,10.92
Wolfgangsberg,47.61,9.8
Wolfgang,50.12,8.96
Wolffradtshof,53.93,13.56
Wolfesing,48.10,11.82
Wolfertsried,48.97,12.91
Wolfertsreute,47.95,9.49
Wolfertshofen,49.06,11.64
Wolfertshofen,47.64,9.92
Wolfertshausen,48.61,11.71
Wolfertshausen,48.47,11.34
Wolfertsfeld,49.42,11.59
Wolfertschwenden,47.89,10.26
Wolfertschlag,48.90,13.31
Wolfertsbronn,49.05,10.26
Wolferts,50.53,9.86
Wolferts,47.92,10.28
Wolferthau,48.72,11.98
Wolferszwing,49.11,12.27
Wolferszell,48.96,12.62
Wolfersweiler,49.56,7.17
Wolfersthal,49.14,11.49
Wolferstetten,49.64,9.52
Wolferstedt,51.42,11.43
Wolferstadt,48.91,10.78
Wolfersreuth,49.96,12.08
Wolfersreut,48.82,13.48
Wolferskofen,48.82,12.78
Wölfersheim,50.4,8.81
Wolfersheim,49.18,7.22
Wolfershausen,51.18,9.44
Wölfershausen,50.87,9.99
Wölfershausen,50.48,10.43
Wolfersgrün,50.61,12.48
Wolfersgrün,50.30,11.53
Wolfersdorf,50.78,11.70
Wolfersdorf,50.78,11.16
Wolfersdorf,50.30,11.29
Wölfersdorf,49.64,11.29
Wolfersdorf,49.33,11.65
Wolfersdorf,49.14,12.23
Wolfersdorf,49.13,12.73
Wolfersdorf,48.76,12.74
Wolfersdorf,48.70,13.43
Wolfersdorf,48.55,11.76
Wolfersdorf,48.48,11.71
Wolferschwenda,51.23,10.8
Wolfersberg,48.04,11.81
Wolfersbach,48.54,8.14
Wolfersbach,48.28,7.93
Wolferode,51.50,11.51
Wolferode,50.89,8.98
Wölferlingen,50.56,7.85
Wolferkofen,48.81,12.64
Wolferkam,47.84,12.24
Wolferdingsen,52.26,8.75
Wolferding,48.41,12.33
Wölferbütt,50.76,10.05
Wolferborn,50.32,9.19
Wolferazhofen,47.77,9.96
Wolfer,52.33,7.78
Wolfenweiler,47.95,7.75
Wolfenhausen,50.38,8.31
Wolfenhausen,48.48,8.84
Wolfenbüttel,54.03,9.07
Wolfenbüttel,52.16,10.54
Wolfenbrück,49.01,9.61
Wolfenacker,50.52,7.43
Wolfen,51.66,12.26
Wolfen,47.77,10.24
Wolfegg,47.82,9.79
Wolfbusch,48.80,9.10
Wolfbühl,47.67,10.06
Wolfaz,47.68,9.86
Wolfau,48.69,13.69
Wolfau,48.88,13.20
Wolfartswinden,49.25,10.63
Wolfartsweiler,48.00,9.43
Wolfartsweiler,47.96,9.86
Wolfartsweier,48.97,8.45
Wolfakirchen,48.50,13.10
Wolfach,48.29,8.21
Wolfa,48.53,13.19
Wolf,48.45,8.28
Wölf,50.78,9.80
Wolf,50.30,9.08
Wolf,49.97,7.10
Wolf,48.6,13.06
Woldzegarten,53.39,12.48
Woldhof,53.63,11.01
Woldert,50.6,7.65
Woldenitz,54.58,13.29
Woldegk,53.46,13.58
Wolde,53.88,11.34
Wolde,53.20,7.54
Wolde,53.68,13.08
Woldang,47.77,10.33
Wold,53.64,7.59
Wölchingen,49.48,9.63
Wolbrechtshausen,51.63,9.88
Wölbersbach,50.22,11.84
Wolbeck,51.91,7.74
Wölbattendorf,50.30,11.84
Woland,53.91,12.23
Wokuhl,53.28,13.20
Wokrent,53.96,11.91
Woja,50.25,11.97
Woitendorf,53.73,10.96
Wohsen,54.14,12.65
Wöhrsberg,48.91,10.34
Wöhrhof,49.12,12.63
Wöhrhof,49.13,12.13
Wohrenstorf,54.01,12.42
Wöhren,52.23,8.81
Wöhren,51.95,9.01
Wöhrden,54.16,9.0
Wöhrden,53.61,9.51
Wohra,50.93,8.94
Wöhr,49.80,11.24
Wöhr,48.81,11.75
Wöhr,48.35,11.35
Wohnste,53.35,9.53
Wohnsig,50.06,11.24
Wohnsgehaig,49.89,11.39
Wohnsdorf,49.91,11.42
Wohnrod,50.14,9.54
Wohnroth,50.05,7.38
Wohnried,47.7,9.88
Wöhningen,52.89,10.92
Wohnfeld,50.57,9.12
Wohnbach,50.42,8.82
Wohnbach,49.30,10.24
Wohnau,49.96,10.45
Wohmbrechts,47.65,9.85
Wohltorf,53.51,10.28
Wohlsdorf,53.12,9.46
Wohlsdorf,51.76,11.86
Wöhlsdorf,50.71,11.95
Wöhlsdorf,50.66,11.34
Wöhlsdorf,50.65,11.54
Wohlsborn,51.03,11.36
Wohlsbach,49.53,12.16
Wohlmuthshüll,49.77,11.22
Wohlmuths,47.82,10.32
Wohlmuthausen,50.57,10.21
Wohlmuthausen,49.26,9.57
Wohlmirstedt,51.24,11.46
Wohlmannsgesees,49.79,11.26
Wohlhausen,50.32,12.34
Wohlgemuth,52.68,11.07
Wohlfest,49.38,12.08
Wohlesbostel,53.38,9.68
Wohlerst,53.42,9.40
Wohlenrode,52.65,10.35
Wohlenhausen,52.66,9.12
Wohlenhausen,51.96,10.09
Wohlenhagen,53.92,11.24
Wohlendorf,52.79,9.36
Wohlenbüttel,53.14,10.19
Wohlenberg,53.94,11.24
Wohlenberg,52.81,11.60
Wohlenbeck,53.66,9.12
Wöhle,52.14,10.13
Wohldorf-Ohlstedt,53.69,10.13
Wohldheide,52.76,8.90
Wohlde,54.40,9.29
Wohlde,52.89,8.51
Wohlde,52.81,9.99
Wohld,53.73,9.79
Wohld,52.66,8.00
Wohlbedacht,51.49,8.80
Wohlbach,50.35,12.31
Wohlbach,50.20,10.92
Wohlau,51.42,13.15
Wohla,51.23,14.11
Wohla,51.13,14.64
Woggersin,53.60,13.23
Wogau,50.93,11.65
Woffleben,51.55,10.72
Woffenricht,49.44,11.67
Woffendorf,50.11,11.23
Woffenbach,49.27,11.43
Woffelsbach,50.62,6.38
Woez,53.59,11.08
Woeten,53.53,11.88
Wodorf,53.98,11.52
Wodenhof,53.60,11.25
Woddow,53.37,14.17
Wodarg,53.74,13.35
Wocklum,51.34,7.88
Wockerath,51.07,6.34
Wochowsee,52.22,13.90
Woching,48.41,12.95
Wochern,49.50,6.40
Wochenweis,48.64,12.90
Wochenend West,52.46,13.11
Wöbs,54.07,10.45
Wobeck,52.13,10.88
Wobbenbüll,54.53,9.0
Wobbelkow,54.31,12.70
Wöbbelin,53.40,11.50
Wöbbel,51.89,9.10
Wobbanz,54.34,13.55
Wixhausen,49.93,8.64
Wixberg,51.32,7.66
Witzwort,54.4,8.98
Witzscherfsdorf,51.32,12.13
Witzschdorf,50.77,13.07
Witznitz,51.15,12.48
Witznau,47.67,8.25
Witzmannsweiler,49.10,9.63
Witzmannsberg,50.22,10.90
Witzmannsberg,50.10,11.31
Witzmannsberg,48.71,13.41
Witzmannsberg,48.62,13.49
Witzmannsberg,48.59,13.50
Witzmanns,47.93,9.94
Witzlricht,49.48,12.01
Witzling,48.68,13.38
Witzling,48.32,12.32
Witzlhof,49.75,11.86
Witzlhof,49.47,11.83
Witzleshofen,50.11,11.72
Witzleben,50.81,11.11
Witzlasreuth,49.92,11.92
Witzlarn,49.27,12.01
Witzke,52.69,12.42
Witzingerreut,48.74,13.40
Witzingerreut,48.67,13.51
Witzin,53.72,11.92
Witzigmänn,47.57,9.73
Witzighausen,48.31,10.10
Witzhelden,51.11,7.11
Witzhave,53.56,10.33
Witzersdorf,48.64,13.45
Witzerath,50.61,6.30
Witzenzell,49.08,12.53
Witzenhausen,51.34,9.85
Witzendorf,50.61,11.29
Witzelsmühle,49.40,12.60
Witzelroda,50.82,10.28
Witzeldorf,48.53,12.49
Witzelberg,48.68,13.15
Witzeeze,53.45,10.61
Wittwien,53.13,12.92
Wittum,49.27,10.24
Wittstock,53.37,13.69
Wittstock,53.16,12.48
Wittsteig,48.31,9.50
Wittstedt,53.40,8.67
Wittschau,49.57,12.25
Wittower Posthaus,54.56,13.18
Wittorf,54.05,9.96
Wittorf,53.33,10.38
Wittorf,53.01,9.51
Wittnau,47.95,7.81
Wittmund,53.57,7.77
Wittmoor,53.19,11.81
Wittmoldt,54.16,10.36
Wittmersklingen,49.34,9.87
Wittmar,52.12,10.64
Wittmannsgereuth,50.62,11.30
Wittmannsdorf,52.07,14.05
Wittmannsdorf,51.84,13.69
Wittlohe,52.85,9.35
Wittloge,52.37,8.75
Wittlingen,48.46,9.44
Wittlingen,47.65,7.65
Wittlich,49.98,6.89
Wittlensweiler,48.47,8.44
Wittlekofen,47.78,8.34
Wittland,54.33,10.08
Wittlage,52.32,8.36
Wittlaer,51.32,6.74
Wittkulle,51.18,7.03
Wittkopsbostel,53.20,9.42
Wittkiel,54.67,9.87
Wittislingen,48.61,10.41
Wittinghof,49.45,10.75
Wittingen,52.72,10.73
Wittingen,48.59,9.83
Wittighöferheide,52.04,8.83
Wittighausen,49.15,9.70
Wittigenhagen,52.04,8.85
Wittichenau,51.38,14.24
Wittichen,48.33,8.34
Wittibreut,48.32,12.98
Witthecke,50.70,7.51
Witthau,48.47,10.01
Wittges,50.58,9.87
Wittgert,50.5,7.7
Wittgensdorf,50.93,13.79
Wittgensdorf,50.88,12.87
Wittgendorfer Feldhäuser,50.95,14.86
Wittgendorf,51.03,12.74
Wittgendorf,50.97,12.19
Wittgendorf,50.94,14.83
Wittgendorf,50.6,11.23
Wittgenborn,50.28,9.26
Wittfeitzen,53.01,10.95
Wittesheim,48.86,10.90
Wittersroda,50.81,11.41
Wittersitt,48.78,13.45
Wittersheim,49.18,7.16
Wittershausen,50.18,9.99
Wittershausen,48.31,8.63
Wittershagen,50.84,7.75
Witterschlick,50.69,7.02
Witterda,51.03,10.88
Wittenwurth,54.26,9.05
Wittenwerder,53.91,13.21
Wittenweiler,49.29,9.95
Wittenweier,48.32,7.75
Wittenwater,53.00,10.41
Wittental,47.99,7.94
Wittenstein,51.26,7.35
Wittenschwand,47.72,8.09
Wittenmoor,52.54,11.68
Wittenhorst,51.76,6.51
Wittenhofen,47.78,9.39
Wittenhof,53.34,13.91
Wittenhagen,54.18,13.07
Wittenhagen,53.33,13.47
Wittenförden,53.62,11.32
Wittenfelde,54.53,13.61
Wittenfeld,48.83,11.20
Wittendün,54.30,8.66
Wittendorf,48.42,8.49
Wittenburg,53.50,11.08
Wittenburg,52.14,9.70
Wittenborn,53.93,10.21
Wittenborn,53.61,13.66
Wittenbergerpassau,54.29,10.38
Wittenbergen,53.93,9.68
Wittenbergen,53.56,9.75
Wittenberge,53.14,7.87
Wittenberge,53.00,11.75
Wittenberg,54.26,10.38
Wittenberg,53.41,9.96
Wittenberg,47.65,9.68
Wittenbeck,54.12,11.78
Wittenbach,49.01,10.38
Vor dem Wittenbach,48.20,8.15
Wittenau,52.59,13.32
Witten,51.44,7.35
Wittelshofen,49.06,10.48
Wittelsberg,50.75,8.85
Wittelsbach,47.93,7.93
Wittelbach,48.29,7.95
Wittekop,52.59,10.05
Wittekindshof,52.25,8.78
Wittdün,54.62,8.38
Wittchenstein,50.77,11.88
Wittchendorf,50.72,12.10
Wittbrietzen,52.18,12.97
Wittbräucke,51.41,7.44
Wittbek,54.46,9.2
Wittbeck,52.69,10.01
Wittau,49.11,10.10
Witsum,54.69,8.44
Witschwende,47.84,9.76
Wiswedel,52.61,10.86
Wistung,48.74,8.12
Wistinghausen,51.95,8.70
Wistedt,53.26,9.68
Wistedt,53.25,9.32
Wistedt,52.81,10.99
Wiste,53.24,8.80
Wißmar,50.63,8.67
Wißmannsdorf,49.98,6.45
Wißkirchen,50.64,6.73
Wissinghausen,51.23,8.64
Wissingen,52.26,8.20
Wissing,49.12,11.60
Wissing,48.78,12.42
Wißgoldingen,48.73,9.81
Wissersheim,50.81,6.69
Wissentrup,51.98,8.75
Wissenbach,50.79,8.32
Wissen,50.77,7.73
Wisselsrod,50.53,9.77
Wisselsing,48.70,12.97
Wisselsheim,50.37,8.76
Wisselsdorf,48.66,12.80
Wissels,50.54,9.75
Wissel,51.77,6.29
Wispitz,51.87,11.77
Wisper,50.15,7.97
Wispenstein,51.95,9.84
Wispelt,50.05,6.98
Wismar,53.89,11.45
Wismar,53.52,13.79
Wismar,52.66,10.95
Wisloh,52.85,8.83
Wischuer,54.09,11.69
Wischstauden,51.15,12.30
Wischroda,51.16,11.55
Wischreihe,53.77,9.57
Wischlingen,51.52,7.39
Wischlburg,48.82,12.77
Wischhafen,53.78,9.31
Wischgrund,51.53,13.8
Wischer,52.64,11.96
Wischenhofen,49.11,11.91
Wischeid,50.30,6.31
Wisch,54.85,8.68
Wisch,54.41,10.35
Wisch,54.41,9.15
Wisch,53.90,11.37
Wisch,53.75,9.46
Wisch,53.65,9.25
Wisch,53.56,9.65
Wirzenborn,50.42,7.86
Wirthsspecard,51.03,7.16
Wirthshalde,47.83,10.32
Wirtheim,50.22,9.26
Wirtenbach,50.88,7.56
Wirschweiler,49.76,7.16
Wirscheid,50.46,7.66
Wirsberg,50.10,11.60
Wirringen,52.29,9.91
Wirrenweiler,47.98,9.95
Wirrensegel,47.70,9.35
Wirnsweiler,47.97,9.43
Wirnsricht,49.46,11.77
Wirnsing,48.72,12.65
Wirmsthal,50.15,10.06
Wirminghausen,51.30,7.49
Wirmighausen,51.34,8.82
Wirme,51.04,8.06
Wirlings,47.69,10.27
Wirl,52.95,11.46
Wirges,50.47,7.79
Wirfuserbach,50.21,7.19
Wirfus,50.2,7.2
Wirft,50.36,6.86
Wirdum,53.48,7.2
Wirdeweg,53.53,7.25
Wirbertshofen,49.10,11.41
Wirberg,50.60,8.90
Wirbenz,49.87,11.83
Wirbelau,50.44,8.22
Wipshausen,52.38,10.35
Wippstetten,48.51,12.37
Wippringsen,51.51,8.08
Wippra,51.57,11.27
Wippling,48.58,13.72
Wippingen,52.91,7.41
Wippingen,48.42,9.86
Wippertsweiler,47.80,9.45
Wippershain,50.83,9.77
Wipperoda,50.87,10.66
Wipperhof,51.11,7.38
Wipperfürth,51.11,7.39
Wipperfeld,51.08,7.32
Wipperdorf,51.45,10.66
Wippenreute,47.80,9.51
Wippenhohn,50.75,7.28
Wippenhausen,48.43,11.68
Wippendorf,54.70,9.82
Wippendorf,49.33,10.62
Wippenbach,50.35,9.04
Wippenbach,48.52,12.35
Wippenau,49.41,10.49
Wippach,51.25,11.56
Wipfra,50.75,10.96
Wipfeld,49.91,10.16
Wipfel,48.00,10.45
Wipersdorf,53.76,11.72
Winzlar,52.44,9.25
Winzingen,48.71,9.82
Winzersdorf,48.54,12.49
Winzermark,51.38,7.12
Winzerla,50.89,11.58
Winzerhausen,49.02,9.26
Winzerberg,51.40,7.15
Winzer,48.72,13.07
Winzer,48.20,10.41
Winzenweiler,49.01,9.81
Winzenhohl,49.97,9.23
Winzenhofen,49.35,9.56
Winzenheim,49.87,7.86
Winzenburg,51.93,9.93
Winzeln,49.18,7.56
Winzeln,48.28,8.49
Winzeldorf,53.67,9.89
Winzberg,50.03,7.77
Winz,51.40,7.15
Wintzingerode,51.44,10.33
Wintzen,50.53,6.50
Wintrich,49.88,6.95
Winterzhofen,49.10,11.46
Winterweyhe,52.91,10.89
Winterwerb,50.23,7.73
Winterswick,51.53,6.60
Wintersweiler,47.67,7.56
Wintersulgen,47.83,9.33
Winterstettenstadt,48.00,9.74
Winterstettendorf,47.98,9.73
Winterstetten,48.56,12.39
Winterstetten,47.76,10.09
Winterstein,50.88,10.45
Winterstein,49.62,11.33
Wintersreuth,50.03,12.04
Winterspüren,47.85,9.05
Winterspelt,50.21,6.21
Wintershof,50.72,7.76
Wintershof,48.90,11.17
Wintersheim,49.77,8.28
Wintershagen,54.08,10.77
Wintersdorf,51.05,12.35
Wintersdorf,49.78,6.51
Wintersdorf,49.42,10.91
Wintersdorf,48.84,8.13
Winterschneidbach,49.24,10.62
Winterscheiderbröl,50.81,7.35
Winterscheid,50.92,9.04
Winterscheid,50.81,7.37
Winterscheid,50.23,6.25
Wintersberg,50.04,12.04
Wintersberg,48.52,12.71
Wintersbach,49.86,9.30
Winterrieden,48.11,10.21
Winterreute,48.08,9.85
Winterrain,49.14,9.65
Winternam,51.47,6.34
Wintermoor an der Chaussee,53.19,9.83
Wintermoor,53.18,9.79
Winterlingen,48.18,9.11
Winterleithen,50.26,11.37
Winterkasten,49.70,8.78
Winterhude,53.6,10.0
Winterhoff,52.89,10.08
Winterhof,51.35,7.79
Winterhausen,49.70,10.01
Winterhalden,48.30,8.37
Winterhalde,47.90,8.11
Winterhagen,51.14,7.29
Wintergrund,51.15,11.86
Winterfeld,52.74,11.24
Winterburg,49.86,7.65
Winterbürg,48.58,8.10
Winterborn,50.91,7.58
Winterborn,49.75,7.86
Winterberg,52.16,8.86
Winterberg,51.19,8.53
Winterberg,49.25,9.78
Winterberg,49.03,10.10
Winterbek,54.3,10.11
Winterbach,50.98,8.05
Winterbach,49.86,7.63
Winterbach,49.47,7.10
Winterbach,49.30,7.47
Winterbach,48.79,9.47
Winterbach,48.51,8.1
Winterbach,48.46,10.48
Winterbach,47.79,9.48
Winterazhofen,47.76,9.97
Wintdorf,51.7,14.25
Winsing,48.79,13.18
Winsen,53.83,10.01
Winsen,53.35,10.21
Winsen,52.68,9.91
Winseldorf,53.94,9.60
Winselburg,50.41,12.47
Winringen,50.15,6.41
Winnweiler,49.56,7.85
Winnings,47.76,10.21
Winninghausen,52.32,9.43
Winningen,51.82,11.45
Winningen,50.31,7.51
Winning,48.05,11.61
Winnigstedt,52.06,10.76
Winnetten,49.03,10.33
Winnert,54.43,9.2
Winnersbach,50.85,7.83
Winnerod,50.60,8.86
Winnerath,50.42,6.87
Winnenthal,51.61,6.48
Winnenhof,50.52,9.57
Winnenden,48.87,9.39
Winnenden,47.98,9.59
Winnenberg,49.68,7.27
Winnen,50.69,8.83
Winnen,50.58,8.01
Winnemark,54.61,9.91
Winnekendonk,51.60,6.30
Winneberg,47.79,10.19
Winne,50.75,10.36
Winnberg,49.23,11.47
Winn,49.43,11.34
Winn,49.21,10.51
Winn,49.13,11.67
Winkwitz,51.18,13.47
Winkum,52.68,7.76
Winklsaß,48.73,12.17
Winklham,48.28,13.05
Winklham,48.22,12.90
Winklers,47.78,10.30
Winklern,49.00,12.88
Winkler,48.53,13.08
Winkl bei Grabenstätt,47.83,12.53
Winklarn,48.66,12.92
Winklarn,49.42,12.47
Winkl,49.37,11.75
Winkl,49.02,11.78
Winkl,48.72,12.53
Winkl,48.71,12.55
Winkl,48.48,13.13
Winkl,48.48,13.01
Winkl,48.34,12.22
Winkl,48.17,10.92
Winkl,48.10,12.00
Winkl,47.79,12.14
Winkl,47.66,12.95
Winkhof,52.71,7.72
Winkhausen,51.70,8.54
Winkhausen,51.21,7.56
Winkhausen,51.16,8.33
Winkerling,49.18,12.08
Winkelstedt,52.81,10.86
Winkelstedt,52.67,11.31
Winkelshütten,52.11,8.32
Winkelsheidermoor,53.39,8.09
Winkelsheide,53.39,8.08
Winkelsetten,52.08,8.08
Winkelsett,52.86,8.53
Winkels,50.55,8.17
Winkels,50.20,10.09
Winkels,47.80,10.24
Winkeln,51.27,7.60
Winkeln,51.20,6.37
Winkeln,51.00,12.84
Winkeln,47.99,12.80
Winkelmühle,51.55,12.73
Winkelmoor,53.24,8.98
Winkeling,51.62,6.57
Winkelhof,49.81,10.51
Winkelheim,51.0,6.58
Winkelhäuser,50.54,12.40
Winkelhausen,52.91,9.76
Winkelhausen,51.42,6.67
Winkelhausen,48.60,11.20
Winkelhaid,49.38,11.3
Winkelhaid,49.21,10.83
Winkeldorf,53.20,9.20
Winkelbrunn,48.80,13.58
Winkelbach,50.65,7.73
Winkel,52.16,8.58
Winkel,53.22,7.84
Winkel,52.95,9.15
Winkel,52.69,14.21
Winkel,52.45,10.49
Winkel,51.54,13.38
Winkel,51.40,11.46
Winkel,51.13,6.98
Winkel,50.58,12.45
Winkel,49.99,8.00
Winkel,49.69,8.76
Winkel,49.20,10.55
Winkel,48.83,8.31
Winkel,48.05,9.81
Winkel,47.64,10.36
Winkel,47.63,11.59
Winkel,47.52,10.29
Winkel,47.41,10.24
Winiham,48.34,12.74
Winhöring,48.26,12.65
Wingst,53.73,9.08
Wingsbach,50.16,8.14
Wingeshausen,51.06,8.28
Wingertsweilerhof,49.56,7.80
Wingersdorf,49.78,10.86
Wingersdorf,48.58,13.55
Wingerode,51.4,10.23
Wingerhausen,50.46,9.13
Wingensiefen,51.03,7.1
Wingendorf,50.91,13.21
Wingendorf,50.85,13.89
Wingendorf,50.82,7.84
Wineden,47.93,10.42
Windten,48.47,12.15
Windten,48.40,11.12
Windshofen,49.21,10.38
Windshausen,50.33,10.14
Windshausen,47.70,12.16
Windsfeld,49.07,10.79
Windschnur,49.06,11.90
Windschnur,48.63,12.65
Windschnur,47.71,12.13
Windschläg,48.51,7.95
Windsberg,49.21,7.53
Windsbach,49.24,10.82
Windrath,51.31,7.13
Windpassing,48.69,13.54
Windpassing,48.61,13.60
Windpaißing,49.47,12.10
Windorf,51.29,12.31
Windorf,51.23,13.37
Windorf,48.62,13.22
Windorf,48.44,12.78
Windmühle,49.27,10.49
Windmais,49.30,12.34
Windloch,54.8,9.48
Windkreut,47.81,11.04
Windischleuba,51.03,12.48
Windischletten,49.99,10.99
Windischholzhausen,50.94,11.09
Windischhausen,48.97,10.83
Windischgaillenreuth,49.77,11.27
Windischeschenbach,49.80,12.15
Windischenlaibach,49.86,11.75
Windischenhaig,50.06,11.41
Windischengrün,50.27,11.71
Windischenbernsdorf,50.86,12.01
Windischenbach,49.18,9.48
Windischbuchen,49.65,9.34
Windischbuch,49.43,9.62
Windischbrachbach,49.20,9.85
Windisch Bockenfeld,49.34,10.07
Windischbergerdorf,49.23,12.70
Windhövel,51.29,7.25
Windhorst,52.74,7.74
Windhorn,52.41,9.28
Windhof,52.00,8.77
Windhof,50.48,8.28
Windhof,49.93,11.44
Windhof,49.16,12.34
Windhof,48.71,8.71
Windheim,52.41,9.01
Windheim,50.42,11.33
Windheim,50.26,10.11
Windheim,50.14,9.83
Windheim,49.88,9.58
Windhäusern,47.68,9.88
Windhäuserhof,49.93,8.12
Windhausen,51.78,10.21
Windhausen,51.14,7.86
Windhausen,50.93,6.09
Windhausen,50.65,9.20
Windhausen,50.20,7.50
Windhausen,50.06,6.29
Windhausen,48.49,10.44
Windham,48.62,12.08
Windham,48.42,11.86
Windham,48.31,12.05
Windhagen,51.04,7.55
Windhagen,50.63,7.35
Windhag,47.66,9.44
Windfuß,50.97,7.71
Windfeln,51.16,7.11
Windesheim,49.9,7.81
Winderswohlde,53.40,9.36
Winderatt,54.73,9.63
Windenreute,48.11,7.88
Winden bei Scheyern,48.48,11.41
Windenbach,48.23,8.15
Winden am Aign,48.64,11.50
Winden,50.73,6.47
Winden,50.38,8.39
Winden,48.70,11.38
Winden,50.33,7.83
Winden,49.31,10.42
Winden,49.09,8.11
Winden,48.94,11.53
Winden,48.79,13.26
Winden,48.76,8.18
Winden,48.50,11.19
Winden,48.50,11.55
Winden,48.17,12.14
Windelsbleiche,51.95,8.52
Windelsbach,49.4,10.3
Windehausen,51.46,10.87
Windegg,47.87,8.99
Windecken,50.22,8.88
Windeby,54.46,9.81
Windebruch,51.07,7.81
Windebrak,54.19,13.03
Windeberg,51.27,10.51
Windbergen,54.05,9.11
Windberge,52.52,11.71
Windberg,51.30,6.33
Windberg,51.20,6.41
Windberg,48.94,12.74
Windbaising,48.54,12.92
Windach,48.16,11.07
Windach,48.06,11.03
Wind,49.77,10.84
Wind,48.19,11.90
Wincherode,50.84,9.33
Wincheringen,49.61,6.43
Winchen,48.56,12.82
Winbuch,49.29,11.88
Wimsheim,48.85,8.83
Wimpfen im Tal,49.23,9.17
Wimpfen am Berg,49.23,9.15
Wimpes,47.74,10.97
Wimperstadl,48.70,13.52
Wimpersing,48.57,12.39
Wimpassing,48.91,12.84
Wimpassing,48.57,13.14
Wimpassing,48.28,12.92
Wimpasing,49.08,11.56
Wimpasing,48.85,12.52
Wimpasing,48.49,11.77
Wimpasing,48.32,12.46
Wimpasing,48.25,12.39
Wimpasing,48.24,12.04
Wimpasing,47.90,11.34
Wimpasing,47.84,12.62
Wimmersdorf,49.33,11.50
Wimmersdorf,48.50,12.58
Wimmersbüll,54.87,8.88
Wimmersbacherhof,49.94,7.50
Wimmern,47.87,12.83
Wimmer,52.32,8.42
Wimmental,49.16,9.35
Wimmelrode,51.58,11.37
Wimmelburg,51.51,11.51
Wimmelbach,49.70,11.00
Wimmelbach,49.44,10.55
Wimm,48.50,12.48
Wimm,48.21,12.86
Wimbern,51.47,7.86
Wimberg,48.93,9.82
Wimberg,48.28,12.53
Wimberg,47.70,10.54
Wimbach,50.36,6.91
Wimbach,49.13,12.83
Wimbach,48.54,12.62
Wilzschhaus,50.47,12.51
Wilzhofen,47.87,11.18
Wilzenburg,49.68,6.72
Wilzenberg,49.7,7.21
Wiltzsch,50.71,12.99
Wiltshausen,53.21,7.51
Wiltrop,51.63,8.07
Wiltingen,49.66,6.6
Wilting,49.16,12.64
Wilthen,51.09,14.39
Wilsum,52.53,6.85
Wilstorf,53.45,9.98
Wilster,53.92,9.37
Wilsten,52.43,7.48
Wilstedt,53.74,10.06
Wilstedt,53.18,9.1
Wilsleben,51.79,11.42
Wilsingen,48.27,9.31
Wilsickow,53.48,13.86
Wilserhütte,53.68,12.41
Wilsenroth,50.52,8.02
Wilsen,54.06,12.02
Wilsen,53.68,12.38
Wilsen,53.37,12.06
Wilsede,53.16,9.96
Wilsecker,50.01,6.58
Wilsdruff,51.05,13.53
Wilsdorf,51.01,11.64
Wilschwitz,51.96,14.65
Wilschwitz,51.22,13.21
Wilsche,52.51,10.48
Wilschdorf,51.12,13.72
Wilschdorf,51.05,14.00
Wilsberg,50.82,6.08
Wilsberg,50.65,7.42
Wilsbach,50.69,8.53
Wils,51.53,11.78
Wilperting,47.92,12.21
Wilpasing,47.88,11.99
Wilnsdorf,50.81,8.1
Wilmstorf,53.93,10.99
Wilmshausen,49.69,8.66
Wilmshagen,54.16,13.17
Wilmsdorf,53.95,10.78
Wilmsdorf,50.96,13.70
Wilmsberg,52.10,7.41
Wilmerting,48.64,13.36
Wilmersdorf,52.48,13.31
Wilmersdorf,53.16,12.30
Wilmersdorf,53.11,13.90
Wilmersdorf,52.40,14.26
Wilmersdorf,52.25,14.13
Willwerscheid,50.03,6.93
Willwerath,50.25,6.46
Willstätt,48.53,7.88
Willschütz,51.01,11.82
Willscheid,50.62,7.33
Willsbach,49.13,9.35
Willroth,50.56,7.51
Willringhausen,51.27,7.38
Willprechtszell,48.53,10.99
Willofs,50.68,9.47
Willofs,47.87,10.43
Willmine,53.11,13.77
Willmersreuth,50.09,11.35
Willmersdorf,52.66,13.68
Willmersdorf,51.84,13.82
Willmersdorf,51.81,14.38
Willmersdorf,50.61,11.04
Willmersbach,49.61,10.70
Willmeroth,50.69,7.32
Willmering,49.25,12.66
Willmenrod,50.55,7.96
Willmendobel,48.03,8.05
Willmendingen,47.63,8.35
Willmatshofen,48.28,10.65
Willmating,48.20,12.09
Willmars,50.5,10.25
Willmannsdorf,49.15,11.66
Willmannsberg,49.10,12.32
Willmanns,50.78,10.05
Willmandingen,48.38,9.15
Willitzgrün,50.40,12.24
Willishausen,48.35,10.74
Willis,47.93,9.89
Willis,47.54,10.00
Willingshausen,50.85,9.2
Willingshain,50.86,9.50
Willingrade,54.02,10.11
Willinghusen,53.55,10.20
Willingerau,47.85,12.00
Willingen,52.96,9.79
Willingen,51.29,8.60
Willingen,50.66,8.08
Willing,48.62,12.95
Willing,48.37,12.97
Willing,47.85,11.98
Willigrad,53.73,11.43
Willighausen,52.86,10.08
Willichslust,52.32,13.03
Willich,51.67,6.40
Willich,51.26,6.54
Willhof,49.41,12.25
Willhartsberg,48.63,13.50
Willhartsberg,48.14,12.72
Willertshausen,48.47,11.73
Willertsham,48.00,12.58
Willertshagen,51.10,7.67
Willerszell,49.01,12.61
Willerswalde,54.12,13.13
Willerstedt,51.08,11.45
Willersöd,48.52,12.76
Willershusen,54.10,13.20
Willershausen,51.78,10.10
Willershausen,51.18,8.86
Willershausen,51.03,10.18
Willershagen,54.19,12.32
Willersdorf,51.02,8.85
Willersdorf,50.47,11.89
Willersdorf,49.74,10.96
Willersdorf,48.72,11.91
Willersdorf,48.55,13.67
Willersdorf,48.53,11.93
Willerscheid,50.49,6.84
Willersberg,48.99,12.61
Willersbach,48.89,12.86
Willerode,51.65,11.42
Willerazhofen,47.82,9.95
Willensen,51.77,10.16
Willenscharen,54.01,9.8
Willenreuth,49.75,11.47
Willenhofen,49.11,11.72
Willenhofen,48.15,9.67
Willendorf,53.89,10.44
Willendorf,49.20,10.67
Willenberg,49.75,11.50
Willenbach,48.32,12.93
Willen,53.56,7.73
Willeithen,48.52,13.00
Willegassen,51.60,9.18
Willebadessen,51.62,9.03
Willbroksmoor,53.22,7.97
Willbrok,53.23,7.97
Willatz,47.69,9.93
Willaringen,47.60,7.97
Willanzheim,49.68,10.23
Willaberg,48.40,12.43
Willa,49.03,10.0
Wilkenstorf,53.15,11.11
Wilkenroth,50.90,7.63
Wilkenhagen,53.83,11.09
Wilkendorf,52.61,13.91
Wilkenburg,52.31,9.75
Wilkenberg,51.10,7.76
Wilkau-Haßlau,50.67,12.51
Wilischau,50.72,13.03
Wilholte,52.84,7.25
Wilhermsdorf,49.48,10.71
Wilhelmsthal,53.56,13.96
Wilhelmsthal,52.72,13.23
Wilhelmsthal,52.49,12.24
Wilhelmsthal,51.58,14.38
Wilhelmsthal,51.20,7.30
Wilhelmsthal,50.91,10.30
Wilhelmsthal,50.31,11.37
Wilhelmstadt,52.52,13.17
Wilhelmstadt,52.13,11.58
Wilhelmsruh,52.58,13.36
Wilhelmsreut,48.73,13.48
Wilhelmskirch,47.78,9.51
Wilhelmshütte,50.86,8.55
Wilhelmshütte,48.0,9.66
Wilhelmshorst,52.33,13.06
Wilhelmshöhe,52.31,13.65
Wilhelmshöhe,51.31,9.43
Wilhelmshöhe,51.3,7.36
Wilhelmshöhe,53.48,13.55
Wilhelmshöhe,52.19,14.26
Wilhelmshöhe,51.5,7.33
Wilhelmshöhe,50.81,6.31
Wilhelmshöhe,50.69,12.53
Wilhelmshöhe,48.85,8.58
Wilhelmshöh,53.93,13.51
Wilhelmshof,53.98,12.51
Wilhelmshof,53.85,13.91
Wilhelmshof,53.80,11.73
Wilhelmshof,53.33,13.73
Wilhelmshof,52.75,11.8
Wilhelmshof,52.41,12.51
Wilhelmshof,48.93,9.15
Wilhelmsheim,49.00,9.45
Wilhelmshayn,53.38,13.62
Wilhelmshaven,53.52,8.11
Wilhelmshausen,53.13,9.06
Wilhelmshausen,51.40,9.58
Wilhelmshall,51.96,10.93
Wilhelmshagen,52.43,13.71
Wilhelmsgrille,52.93,12.32
Wilhelmsgreuth,49.49,10.54
Wilhelmsglücksbrunn,51.03,10.22
Wilhelmsglück,49.06,9.74
Wilhelmsfelde,53.85,13.88
Wilhelmsfelde,52.98,14.04
Wilhelmsfeld,51.38,14.61
Wilhelmsfeld,49.47,8.75
Wilhelmsfehn Zwei,53.41,7.68
Wilhelmsfehn,53.42,7.68
Wilhelmseiche,52.54,11.62
Wilhelmsdorf,52.38,9.35
Wilhelmsdorf,52.37,12.50
Wilhelmsdorf,51.92,8.55
Wilhelmsdorf,50.62,11.54
Wilhelmsdorf,50.35,8.47
Wilhelmsdorf,49.56,10.73
Wilhelmsdorf,47.86,9.41
Wilhelmsburg,53.50,9.98
Wilhelmsburg,53.64,13.85
Wilhelmsburg,52.01,8.92
Wilhelmsburg,51.66,8.68
Wilhelmsberg,52.53,13.46
Wilhelmsaue,52.66,14.34
Wilhelm Leuschner Siedlung,49.63,8.63
Wilhelminenthal,53.88,13.30
Wilhelminenthal,52.50,12.29
Wilhelminental,51.25,14.84
Wilhelminenhof,53.80,12.10
Wilhelminenhof,52.90,11.71
Wilhelminenhof,52.68,11.71
Wilhelminenhof,52.57,12.30
Wilhelminenberg,49.66,10.55
Wilhelmhof,48.63,13.23
Wilhelm,48.53,13.03
Wilgersdorf,50.81,8.14
Wilgartswiesen,49.21,7.88
Wilflingen,48.91,9.99
Wilflingen,48.15,8.72
Wilflingen,48.13,9.35
Wilfingen,47.66,8.10
Wilfertsweiler,47.98,9.49
Wilfertshofen,49.38,11.55
Wilferdingen,48.94,8.57
Wildthurn,48.63,12.74
Wildtal,48.02,7.89
Wildstein,49.52,12.41
Wildsteig,47.7,10.95
Wildspring,51.29,7.49
Wildsöden,51.66,8.65
Wildshausen,51.39,8.16
Wildschütz,51.47,12.85
Wildschütz,51.12,12.07
Wildschapbach,48.38,8.27
Wildsachsen,50.11,8.36
Wildprechtroda,50.80,10.24
Wildprechting,48.49,12.63
Wildpoltsweiler,47.65,9.67
Wildpoldsried,47.76,10.4
Wildpfal,54.21,9.06
Wildpark West,52.38,12.95
Wildnis,50.89,6.08
Wildkuhl,53.32,12.53
Wildhaus,50.75,11.68
Wildgrube,51.58,13.38
Wildgrub,47.63,12.12
Wildgarten,48.94,9.73
Wildflecken,50.37,9.91
Wildewiese,51.23,7.99
Wildetaube,50.71,12.11
Wilde Taube,50.53,12.50
Wildes Ried,47.97,9.75
Wildeshausen,52.89,8.43
Wilde Rench,48.46,8.24
Wildeppenried,49.50,12.44
Wildenwart,47.83,12.30
Wildentierbach,49.39,9.98
Wildenthal,50.45,12.63
Wildenstein,50.19,11.55
Wildenstein,49.82,9.29
Wildenstein,49.06,10.21
Wildenstein,49.04,11.61
Wildenspring,50.6,11.06
Wildensorg,49.88,10.85
Wildensee,49.82,9.35
Wildenschönau,48.57,12.51
Wildenroth,50.14,11.32
Wildenroth,48.12,11.16
Wildenreuth,49.80,12.08
Wildenrath,51.12,6.19
Wildenranna,48.58,13.73
Wildenlohsweg,53.11,8.18
Wildenholzen,48.01,11.89
Wildenholz,49.22,10.20
Wildenhof,49.58,11.63
Wildenhof,49.34,10.24
Wildenhof,48.94,9.97
Wildenheid,50.34,11.12
Wildenhäusle,48.93,9.97
Wildenhain,51.53,12.80
Wildenhain,51.30,13.47
Wildenhain,51.08,12.37
Wildenforst,48.87,12.88
Wildenfels,50.66,12.60
Wildenfels,49.65,11.36
Wildeneck,48.67,12.82
Wildenburg,50.92,7.82
Wildenbruch,52.28,13.06
Wildenbörten,50.91,12.28
Wildenborn,51.00,12.19
Wildenbergen,49.34,10.95
Wildenberg,48.57,8.17
Wildenberg,50.18,11.33
Wildenberg,48.72,11.89
Wildenberg,48.70,13.37
Wildenau,51.78,13.27
Wildenau,50.53,12.80
Wildenau,50.55,12.44
Wildenau,50.20,12.16
Wildenau,49.77,12.25
Wildemann,51.82,10.28
Wildeberg,50.55,11.92
Wildebauer,51.52,8.16
Wildböllen,47.79,7.86
Wildbergerhütte,50.93,7.75
Wildberg,53.65,13.12
Wildberg,52.87,12.63
Wildberg,51.10,13.58
Wildberg,50.93,7.76
Wildberg,48.62,8.74
Wildberg,47.67,10.51
Wildberg,47.59,9.74
Wildbad Kreuth,47.62,11.74
Bad Wildbad im Schwarzwald,48.75,8.55
Wildbach,50.79,6.07
Wildbach,50.63,12.65
Hubertusstock,52.91,13.66
Wildau,52.31,13.63
Wildau,51.9,13.55
Wilchwitz,50.98,12.48
Wilchenreuth,49.70,12.21
Wilburgstetten,49.03,10.38
Wilbringhausen,51.10,7.58
Wilbrenning,51.89,7.58
Wilbich,51.24,10.17
Wilbersdorf,49.34,12.37
Wilberhofen,50.81,7.54
Wilberg,51.89,8.95
Wik,54.35,10.12
Wihl,47.63,8.11
Wigratz,47.64,9.84
Wiggisrain,48.05,7.93
Wiggeringhausen,51.62,8.22
Wiggensbach,47.74,10.22
Wiggenreute,47.80,9.85
Wiggenhausen,47.67,9.49
Wiflingshausen,48.75,9.33
Wifling,48.58,13.09
Wifling,48.37,12.42
Wifling,48.23,11.88
Wiffertshausen,48.35,11.00
Wiewohl,52.83,10.82
Wiewen,52.21,8.28
Wietzow,53.82,13.27
Wietzetze,53.18,10.93
Wietzendorf,52.91,9.98
Wietzenbruch,52.60,10.01
Wietzen,52.71,9.08
Wietze,52.65,9.83
Wietstock,53.71,13.78
Wietstock,52.26,13.30
Wietsche,51.09,7.03
Wietow,53.83,11.52
Wietmarschen,52.53,7.13
Wietkamp,51.65,7.95
Wietingsbeck,53.70,10.83
Wietinghausen,52.70,8.66
Wiethop,52.28,8.80
Wiethaupt,51.79,8.63
Wiethagen,54.18,12.23
Wietfeld,51.71,10.66
Wietersheim,52.33,8.95
Wietel,52.23,8.78
Wiesweiler,49.63,7.56
Wiesthal,50.03,9.43
Wieste,52.81,7.66
Wießendorf,49.67,12.06
Wies-Oppenheim,49.60,8.29
Wiesneck,47.96,7.99
Wiesmühl,48.10,12.56
Wiesmühl,48.02,12.73
Wiesmoor,53.41,7.73
Wiesloch,49.29,8.69
Wieslings,47.89,10.19
Wiesling,48.32,12.42
Wiesleuten,47.65,10.61
Wieslet,47.68,7.79
Wieslensdorf,49.14,9.42
Wieske,52.03,7.35
Wieskau,51.64,11.93
Wiesing,49.17,12.48
Wiesing,49.10,12.93
Wiesing,48.36,13.05
Wiesigk,51.87,12.71
Wieshof,49.05,13.02
Wieshof,48.96,13.13
Wieshof,48.95,10.79
Wiesham,48.05,11.96
Wiesewitz,51.55,12.20
Wiesethbruck,49.16,10.61
Wieseth,49.16,10.48
Wiesertsweiler,47.65,9.65
Wieserode,51.68,11.33
Wieseris,47.72,10.38
Wiesentheid,49.79,10.34
Wiesenthau,49.71,11.13
Wiesenthal,53.37,13.02
Wiesenthal,51.17,12.88
Wiesenthal,50.7,10.16
Wiesenthal,47.83,10.31
Wiesentfels,49.95,11.21
Wiesental,49.22,8.51
Wiesental,49.15,9.46
Wiesent,49.01,12.38
Wiesensüß,49.48,12.22
Wiesenstetten,48.39,8.74
Wiesensteighof,48.91,9.6
Wiesensteig,48.56,9.62
Wiesens,53.45,7.55
Wiesenmühle,50.99,12.36
Wiesenmühle,50.03,12.02
Wiesenhofen,49.04,11.41
Wiesenhofen,47.87,9.54
Wiesenhausen,47.75,12.11
Wiesenhagen,52.17,13.23
Wiesengrund,52.53,13.72
Wiesengiech,49.96,10.99
Wiesenfelden,49.03,12.53
Wiesenfeld,51.26,10.10
Wiesenfeld,51.00,8.75
Wiesenfeld,50.70,9.92
Wiesenfeld,50.29,10.90
Wiesenfeld,49.99,9.68
Wiesenena-Rabutz,51.44,12.17
Wiesenena,51.45,12.18
Wiesendorf,51.72,14.14
Wiesendorf,49.70,10.90
Wiesendorf,48.88,12.45
Wiesenburg,52.11,12.45
Wiesenburg,50.64,12.56
Wiesenburg,50.45,12.06
Wiesenbrück,53.46,13.25
Wiesenbronn,49.75,10.3
Wiesenbach,50.90,8.42
Wiesenbach,49.36,8.80
Wiesenbach,49.29,10.03
Wiesenbach,49.00,9.65
Wiesenbach,48.58,11.00
Wiesenau,52.42,9.72
Wiesenau,52.23,14.59
Wiesenau,50.8,6.45
Wiesen,50.64,12.55
Wiesen,50.58,9.78
Wiesen,50.11,9.36
Wiesen,50.09,10.95
Wiesen,49.95,11.53
Wiesen,47.91,9.91
Wiesen,47.83,11.47
Wiesen,47.76,12.64
Wiesemscheid,50.33,6.88
Wieselsberg,48.56,12.37
Wieselrieth,49.57,12.27
Wieselbach,49.66,7.41
Wiesedermeer,53.47,7.72
Wiesederfehn,53.43,7.75
Wiesede,53.44,7.76
Wieseck,50.60,8.70
Wiesebach,50.94,12.57
Wiese,52.06,14.09
Wiese,50.7,7.23
Wiescherhöfen,51.64,7.76
Wieschendorf,53.93,10.96
Wiescheid,51.13,6.98
Wiescheid,50.82,7.32
Wiesbaum,50.33,6.66
Wiesbaden,50.08,8.24
Wiesbach,49.37,6.97
Wiesbach,49.33,7.45
Wiesbach,48.40,12.50
Wiesau,49.90,12.18
Wiesa,51.25,14.11
Wiesa,50.61,13.01
Wies,49.53,6.37
Wies,49.09,12.74
Wies,48.04,12.78
Wies,47.74,10.70
Wies,47.74,7.76
Wies,47.68,10.90
Wies,47.65,10.34
Wies,47.59,10.60
Wierup,52.66,7.84
Wierthe,52.23,10.38
Wierstorf,52.75,10.63
Wiershop,53.43,10.45
Wiershausen,51.82,10.07
Wiershausen,51.42,9.71
Wiersen,52.26,9.30
Wiersdorf,53.29,9.32
Wiersdorf,52.80,10.95
Wiersdorf,50.0,6.45
Wierschem,50.22,7.35
Wiernsheim,48.88,8.85
Wierling,51.9,7.45
Wierlauke,51.51,8.06
Wierigsdorf,51.87,13.69
Wierenkamp,53.88,9.96
Wierenhorst,53.77,9.90
Wieren,52.88,10.65
Wierde,53.66,8.54
Wierborn,51.99,9.10
Wiera,50.88,9.14
Wiepkenhagen,54.28,12.60
Wiepke,52.59,11.33
Wiepersdorf,51.88,13.24
Wiepersdorf,51.80,13.30
Wiepenkathen,53.58,9.41
Wiensen,51.64,9.62
Wienrode,51.76,10.97
Wienöbst,52.71,7.72
Wieningen,51.89,7.84
Wiening,48.68,13.35
Wienhausen,52.58,10.18
Wiendorf,53.94,12.15
Wiendorf,51.71,11.80
Wienbergen,52.84,9.18
Wienau,50.56,7.64
Wiemsdorf,53.44,8.52
Wiemerstedt,54.26,9.11
Wiemerslage,52.45,7.59
Wiemerskamp,53.73,10.15
Wiemersdorf,53.95,9.90
Wiemeringhausen,51.28,8.50
Wiemelhausen,51.45,7.23
Wiembeck,51.99,8.94
Wielpütz,50.86,7.22
Wielpütz,50.58,6.56
Wieling,47.95,11.26
Wielenberg,47.49,10.24
Wielenbach,47.86,11.15
Wielen,54.19,10.33
Wielen,52.55,6.71
Wielen,47.9,10.53
Wielazhofen,47.83,10.06
Wielatsried,47.86,9.54
Wielandsweiler,49.05,9.62
Wielandsweiler,47.61,9.63
Wielandshöfe,48.83,11.05
Wielage,52.47,7.71
Wieladingen,47.59,7.99
Wiekhorn,53.03,8.63
Wiek,54.62,13.28
Wiehre,47.98,7.85
Wiehlmünden,50.98,7.47
Wiehl,50.96,7.77
Wiehl,50.94,7.55
Wiehelund,54.73,9.23
Wiehekrug,54.70,9.24
Wiehe,52.29,7.77
Wiehe,52.21,8.79
Wiehe,51.26,11.41
Wiehagen,51.50,7.85
Wiehagen,51.14,7.31
Wieh,53.41,9.41
Wiegmannsort,52.38,8.48
Wieglitz,52.35,11.32
Wiegleben,51.04,10.62
Wiegersen,53.38,9.55
Wiegersdorf,51.57,10.79
Wiegendorf,50.98,11.43
Wiegboldsbur,53.45,7.33
Wiefhausen,52.79,8.85
Wieferthook,52.16,7.02
Wiefelstedermoor,53.25,8.07
Wiefelstede,53.25,8.11
Wiefelsdorf,49.27,12.07
Wiefelsburg,50.41,11.15
Wiefels,53.59,7.87
Wiefeldick,51.14,7.01
Wiednitz,51.38,14.02
Wiedmoos,47.73,11.56
Wiedmar,47.58,10.60
Wiedmannsfelden,47.93,12.92
Wiedingen,53.00,9.78
Wiedigshof,51.56,10.63
Wiederstein,50.77,8.04
Wiederstedt,51.66,11.52
Wiedersdorf,51.46,12.12
Wiedersberg,50.36,11.99
Wiedersbach,50.47,10.79
Wiedersbach,49.29,10.43
Wiederoda,51.25,12.96
Wiedermuth,51.30,10.71
Wiederitzsch,51.39,12.37
Wiederhofen,47.59,10.10
Wiedergrün,48.50,8.00
Wiedergeltingen,48.03,10.66
Wiederberg,50.96,12.80
Wiederau,51.63,13.31
Wiederau,51.19,12.28
Wiederau,50.97,12.83
Wiedenzhausen,48.29,11.23
Wiedent,49.89,11.66
Wiedensahl,52.38,9.12
Wiedenrode,52.51,10.26
Wiedenhof,53.29,9.92
Wiedenfeld,50.98,6.61
Wiedenest,51.03,7.68
Wiedenbrügge,52.42,9.25
Wiedenbrück,51.83,8.31
Wiedenborstel,54.04,9.76
Wiedenberg,50.53,12.45
Wiedenberg,50.41,12.26
Wiedenbach,47.69,9.63
Wieden,51.25,7.07
Wieden,51.15,7.11
Wieden,50.33,12.1
Wieden,49.12,12.08
Wieden,48.63,11.88
Wieden,47.90,12.12
Wieden,47.6,11.45
Wieden,47.84,7.88
Wiedemar,51.46,12.2
Wiedemannsdorf,47.55,10.09
Wiedelah,51.95,10.58
Wiedau,53.07,8.57
Wieda,51.63,10.58
Wieckhorst,53.08,9.78
Wieckenberg,52.63,9.84
Wieck,54.40,12.58
Wieck,54.09,13.44
Wieck,53.94,13.39
Wieck,52.24,7.81
Wiechs am Randen,47.78,8.63
Wiechs,47.87,11.90
Wiechs,47.81,8.90
Wiechs,47.77,12.02
Wiechs,47.63,7.81
Wiechendorf,52.52,9.69
Wiecheln,53.22,10.67
Wiechel,52.84,10.20
Wiebusch,52.83,8.70
Wiebrechtshausen,51.74,10.01
Wieblitz-Eversdorf,52.80,11.08
Wieblingen,49.42,8.64
Wiebendorf,53.40,10.82
Wiebelskirchen,49.37,7.18
Wiebelsheim,50.08,7.63
Wiebelsheim,49.50,10.37
Wiebelsdorf,50.71,11.94
Wiebelsberg,49.73,10.38
Wiebelsbach,49.82,8.94
Wiebelsaat,51.12,7.64
Wiebeler,51.74,8.44
Wiebelbach,49.79,9.53
Widmannstal,49.16,9.18
Widlthal,49.12,11.98
Widey,51.69,8.66
Wideregg,48.01,10.40
Widdum,47.63,10.29
Widdum,47.6,9.81
Widdig,50.79,7.02
Widdeshoven,51.08,6.68
Widdert,51.13,7.06
Widderstein,50.68,7.69
Widderstall,48.53,9.71
Widdershausen,50.91,10.01
Widdersdorf,50.96,6.83
Widdersdorf,48.93,13.19
Widdersdorf,48.54,12.00
Widdersberg,48.01,11.19
Widders,53.53,8.45
Widdernhausen,52.85,9.98
Widdern,49.31,9.42
Widdensen,52.25,9.09
Widdendorf,50.92,6.61
Widdelswehr,53.33,7.26
Widdau,50.56,6.30
Wickühl,50.90,7.23
Wickstadt,50.30,8.84
Wickriede,52.37,8.72
Wickrathhahn,51.12,6.38
Wickrathberg,51.11,6.41
Wickrath,51.48,6.48
Wickrath,51.13,6.40
Wicklesgreuth,49.31,10.71
Wickhausen,51.11,7.24
Wickhausen,50.76,7.64
Wickesberg,51.11,7.29
Wickerstedt,51.05,11.54
Wickersrode,51.15,9.74
Wickershain,51.04,12.70
Wickersdorf,50.88,12.55
Wickersdorf,50.58,11.25
Wickersdorf,48.98,13.11
Wickers,50.54,9.98
Wickerode,51.47,11.13
Wicker,50.02,8.40
Wickensen,51.92,9.65
Wickenrodt,49.81,7.35
Wickenrode,51.25,9.73
Wickenricht,49.60,11.73
Wickenreuth,50.07,11.44
Wickenhaus,47.84,9.64
Wickendorf,53.68,11.42
Wickendorf,50.53,11.44
Wickendorf,50.37,11.37
Wickelhof,49.54,7.73
Wickeder Chaussee,51.51,7.61
Wickede,51.53,7.61
Wickede,51.49,7.86
Wickbranzen,52.84,8.86
Wickbolsen,52.17,9.30
Wichum,52.13,7.08
Wichtshausen,50.60,10.57
Wichtringhausen,52.33,9.43
Wichtleiten,48.38,12.92
Wichterich,50.70,6.73
Wichtens,53.62,7.86
Wichtenbeck,52.94,10.31
Wichte,53.60,7.31
Wichte,51.04,9.58
Wichsenstein,49.73,11.26
Wichmar,51.03,11.68
Wichmannshausen,51.10,9.97
Wichmannsdorf,54.11,11.73
Wichmannsdorf,53.98,11.18
Wichmannsdorf,53.24,13.64
Wichmannsburg,53.13,10.50
Wichlinghofen,51.45,7.49
Wichlinghausen,52.09,8.33
Wichenhausen,52.85,8.70
Wichenberg,52.37,12.12
Wichel,52.67,8.25
Wichdorf,51.22,9.30
Wiblingwerde,51.30,7.61
Wiblingen,48.36,9.98
Wibbese,53.05,11.00
Wibberich,51.77,8.18
Wibbecke,51.57,9.77
Wiarder Altendeich,53.66,7.98
Wiarden,53.66,7.95
Weyhers,50.48,9.80
Weyhern,48.33,11.37
Weyhern,48.28,11.15
Weyher,49.26,8.08
Weyhe,52.96,8.66
Weyhausen,52.79,10.38
Weyhausen,52.46,10.71
Weyersfeld,50.07,9.79
Weyermoor,53.21,8.89
Weyerhof,51.05,6.38
Weyerbusch,50.71,7.55
Weyer,51.17,7.02
Weyer,50.53,6.64
Weyer,50.36,8.22
Weyer,50.18,7.71
Weyer,50.02,10.31
Weyen,51.63,6.28
Weyarn,47.85,11.79
Wey,51.13,6.50
Wext,52.14,7.09
Wewer,51.68,8.69
Wewelsfleth,53.85,9.4
Wewelsburg,51.60,8.65
Weweck,48.52,13.24
Wevelinghoven,51.31,6.27
Wevelinghoven,51.10,6.62
Weuste,51.25,7.28
Weuspert,51.22,8.03
Wetzstein,48.62,13.05
Wetzlos,50.75,9.62
Wetzlhof,48.41,12.73
Wetzlers,47.71,10.56
Wetzleberg,47.81,10.17
Wetzleben,52.06,10.71
Wetzldorf,49.85,12.05
Wetzlar,50.56,8.50
Wetzl,47.73,11.58
Wetzisreute,47.78,9.70
Wetzhausen,50.19,10.41
Wetzgau,48.81,9.77
Wetzenow,53.47,14.08
Wetzendorf,51.27,11.64
Wetzendorf,49.47,11.04
Wetzenbach,48.83,13.08
Wetzen,53.17,10.23
Wetzelsgrün,50.53,12.28
Wetzelsdorf,49.08,12.37
Wetzelsdorf,49.02,12.99
Wetzelsberg,49.07,12.62
Wetzelhübel,50.62,13.45
Wetze,51.74,9.90
Wetzdorf,51.00,11.76
Wetzdorf,50.74,11.93
Wettzell,49.14,12.88
Wettstetten,48.82,11.41
Wettsaasen,50.63,9.06
Wettrup,52.58,7.59
Wettringhof,51.23,7.68
Wettringen,52.20,7.31
Wettringen,50.16,10.41
Wettringen,49.25,10.15
Wettmershagen,52.39,10.64
Wettmarsen,51.38,7.91
Wettmar,52.51,9.91
Wettmannsberg,47.74,10.34
Wettlkam,47.91,11.64
Wettlingen,49.93,6.4
Wettis,47.6,9.65
Wettinhöhe,50.65,13.43
Wettingen,48.51,10.11
Wetting,48.18,11.99
Wettin,51.58,11.80
Wettges,50.41,9.33
Wettesingen,51.45,9.18
Wetterzeube,51.0,12.01
Wetterwitz,51.08,13.22
Wettersdorf,51.08,13.22
Wettersdorf,50.75,11.35
Wettersdorf,49.63,9.38
Wettersdorf,48.49,12.53
Wetterscheidt,51.10,11.84
Wettersberg,54.15,9.55
Wettersberg,49.44,11.51
Wetterndorf,53.58,9.58
Wetterndorf,53.90,9.28
Wetterling,47.98,11.88
Wetteritz,51.24,12.91
Wetterfeld,50.54,8.95
Wetterfeld,49.21,12.54
Wetterburg,51.38,9.05
Wetter,52.21,8.40
Wetter (Ruhr),51.38,7.39
Wetter,50.90,8.72
Wettensen,52.01,9.80
Wettenhofen,49.19,11.40
Wettenhausen,48.39,10.35
Wettendorf,51.91,7.78
Wettendorf,52.75,10.58
Wettenbostel,53.07,10.28
Wettenberg,48.03,9.82
Wetten,51.57,6.29
Wettelswalde,50.84,12.31
Wettelsheim,48.98,10.88
Wettelrode,51.51,11.28
Wetteldorf,50.15,6.46
Wettelbrunn,47.87,7.69
Wetteborn,51.90,9.96
Wettbergen,52.32,9.69
Wettaburg,51.09,11.83
Wetschhausen,49.42,7.21
Wetschewell,51.13,6.42
Wetscherhardt,52.61,8.43
Wetschen,52.61,8.44
Wetro,51.25,14.30
Wetitz,51.24,13.06
Wethmar,51.62,7.54
Wethen,51.49,9.07
Wethe,53.68,9.44
Wethau,51.13,11.86
Weteritz,52.51,11.33
Wesuwer Brook,52.76,7.24
Wesuwe,52.75,7.21
Westwippingen,52.93,7.4
Westum,52.17,7.52
Westum,50.53,7.22
Westuffeln,51.43,9.32
Westtünnen,51.65,7.85
Westsiedlung,52.72,9.71
Westscheidt,52.23,8.70
Westscheide,54.63,9.52
Westrup,51.77,7.47
Westrup,52.52,7.92
Westrup,52.49,8.09
Westrup,52.42,8.44
Westrup,52.28,8.25
Westrup,52.22,8.00
Westrup,51.72,7.24
Westrum,53.60,7.91
Westrum,52.70,7.65
Westrittrum,52.97,8.32
Westrich,51.49,8.07
Westrhauderfehn,53.13,7.55
Westre,54.85,8.98
Westorf,52.10,8.91
Westönnen,51.55,7.96
Westochtersumerfeld,53.59,7.50
Westochtersum,53.60,7.50
Westmoorsee,53.50,8.39
Westmoor,53.47,9.69
Westlintel,53.6,7.18
Westleven,51.71,7.26
Westlähden,52.75,7.55
Westladbergen,52.15,7.67
West Krauel,53.39,10.22
Westkirchen,51.88,8.08
Westkilver,52.22,8.46
West Jacobswarf,54.71,8.75
Westig,51.37,7.75
Westick,51.57,7.62
Westick,51.47,7.78
Westhusen,51.71,7.88
Westhoyel,52.17,8.45
Westhoven,51.13,7.30
Westhoven,50.89,7.02
Westhofen,51.42,7.53
Westhofen,49.70,8.24
Westhof,54.10,11.67
Westhilbeck,51.57,7.84
Westherbede,51.41,7.26
Westhemmerde,51.54,7.78
Westheim bei Haßfurt,49.97,10.50
Westheim,51.49,8.90
Westheim,50.12,9.93
Westheim,49.8,10.41
Westheim,49.74,10.06
Westheim,49.24,8.32
Westheim,49.21,10.38
Westheim,49.05,9.73
Westheim,49.0,10.66
Westheim,48.38,10.81
Westheide,51.43,7.61
Westhausen,51.39,10.18
Westhausen,51.15,7.14
Westhausen,51.01,10.68
Westhausen,50.31,10.66
Westhausen,48.88,10.18
Westhaid,49.36,11.33
Westgroßefehn,53.38,7.52
Westgreußen,51.25,10.91
Westgartshausen,49.12,10.12
Westfilderstadt,48.68,9.15
Westfeld,52.05,9.91
Westfeld,51.16,8.41
Westewitz,51.57,11.94
Westerwohld,54.16,9.17
Westerwisch,53.86,8.66
Westerwiehe,51.81,8.48
Westerwiede,52.11,8.07
Westerweyhe,52.99,10.51
Westerwede,53.19,8.91
Westerwanna,53.74,8.78
Westerwalsede,53.03,9.36
Westerwall,54.86,8.41
Westerwald,52.24,9.23
Westervinnen,52.06,8.65
Westervesede,53.14,9.54
Wester-Treia,54.51,9.30
Westertimke,53.23,9.13
Westertilli,54.50,8.65
Westerstetten,48.51,9.95
Westerstederfeld,53.25,7.87
Westerstede,53.25,7.92
Westersode,53.69,9.11
Westerskirchen,48.46,12.42
Süderwesterseite,53.67,8.85
Westerschütting,54.50,8.60
Westerschoo,53.58,7.52
Westerschondorf,48.04,10.97
Wester Schnatebüll,54.75,8.91
Westerscheps,53.12,7.90
Westersanderfeld,53.39,7.47
Westersander,53.41,7.50
Westerrönfeld,54.28,9.65
Westerringen,48.13,10.75
Westerried,47.78,10.46
Westerrade,53.93,10.45
Westerort,52.33,8.89
Wester-Ohrstedt,54.50,9.18
Wester-Offenbülldeich,54.36,8.9
Westeroden,52.51,7.80
Westerode,52.08,7.56
Westerode,52.08,7.51
Westerode,51.90,10.56
Westerode,51.52,10.22
Westernohe,50.58,8.1
Bad Westernkotten,51.63,8.36
Westernholz,52.23,9.13
Westernheide,52.81,8.95
Westernhausen,49.34,9.56
Westerndorf-Sankt Peter,47.87,12.11
Westerndorf,48.69,12.79
Westerndorf,48.57,12.85
Westerndorf,48.33,11.52
Westerndorf,48.26,12.75
Westerndorf,47.99,11.89
Westerndorf,47.85,12.16
Westerndorf a. Wasen,47.82,12.07
Westerndorf,47.80,12.28
Westernbödefeld,51.25,8.37
Westernbach,49.23,9.49
Westernach,49.19,9.68
Westernach,48.07,10.46
Westernach,47.86,12.34
Westermühlen,54.26,9.5
Westermoordorf,53.56,7.32
Westermoor,54.31,9.15
Westermoor,53.91,9.62
Westermenghusen,53.93,9.03
Westermarsch Zwei,53.59,7.12
Westermarsch Eins,53.56,7.13
Westermarkelsdorf,54.52,11.05
Westerlutten,52.77,8.31
Westerloyerfeld,53.24,7.85
Westerloy,53.23,7.87
Westerloog,53.62,7.19
Westerlohmühlen,52.71,7.45
Westerloh,52.98,7.9
Westerloh,52.73,7.49
Westerloge,53.06,8.50
Westerlinde,52.12,10.22
Wester Langenhorner Feld,54.66,8.91
Wester Langenhorn,54.66,8.90
Westerland,54.90,8.30
Wester Ladekop,53.52,9.64
Westerklanxbüll,54.86,8.66
Westerkappeln,52.31,7.88
Wester-Jork,53.53,9.67
Westerihlienworth,53.75,8.91
Westerhüsen,52.06,11.67
Westerhusen,53.41,7.17
Westerhorn,53.86,9.68
Westerhörn,53.56,7.08
Westerhorn,53.03,10.18
Westerholzhausen,48.36,11.34
Westerholz,54.81,9.66
Westerholz,54.49,9.27
Westerholz,53.16,9.40
Westerholz,52.59,10.56
Westerholtsfelde Süd,53.18,8.11
Westerholtsfelde Nord,53.19,8.12
Westerholte,52.50,7.86
Westerholt,53.6,7.45
Westerholt,53.07,8.13
Westerholt,52.92,7.63
Westerholt,51.60,7.09
Westerholm,54.74,9.74
Westerhofen,48.87,10.22
Westerhofen,48.85,11.44
Westerhofen,47.51,10.26
Westerhof,53.40,9.91
Westerhof,51.76,10.11
Westerhever,54.38,8.67
Westerheim,48.51,9.62
Westerheim,48.01,10.3
Westerheide,51.66,6.53
Westerheide,52.30,8.15
Westerheide,51.64,7.72
Westerhausen,52.51,8.05
Westerhausen,52.23,8.28
Westerhausen,51.80,11.05
Westerhausen,50.73,7.29
Westerhausen,53.60,8.01
Westerhart,47.96,10.11
Westerharl,52.92,9.67
Westerhamm,53.73,9.03
Westerham,48.51,11.22
Westerham,48.27,12.61
Westerham,48.05,11.61
Westerham,47.86,11.97
Westerham,47.80,12.36
Westerham,47.89,11.83
Westergellersen,53.23,10.25
Westerflach,48.23,9.80
Westerfilde,51.54,7.37
Westerfelde,51.70,7.51
Westerfeld,53.45,7.47
Westerfeld,53.08,8.63
Westerfeld,52.88,7.81
Westerfeld,52.32,9.72
Westerfeld,50.31,8.52
Niebywesterfeld,54.78,9.93
Westeresch,53.18,9.45
Westerengerheide,52.14,8.50
Westerengel,51.28,10.90
Westerende-Otterndorf,53.81,8.83
Westerende Kirchloog,53.44,7.42
Westerende Holzloog,53.43,7.39
Westerende,53.61,7.35
Westeremstek,52.83,8.14
Westereiden,51.56,8.40
Westeregeln,51.96,11.39
Wester Efkebüll,54.7,8.85
Westereck,54.28,8.65
Westerdeichstrich,54.16,8.86
Westerdeich,53.67,7.34
Westerdeich,54.48,8.83
Westerdeich,54.28,8.76
Westercelle,52.60,10.07
Westercadewisch,53.76,9.03
Westerburg,53.02,8.23
Westerburg,52.01,10.86
Westerburg,50.55,7.97
Westerbur,53.65,7.49
Westerbünge,54.43,9.33
Westerbuchberg,47.80,12.46
Westerbruch,51.45,6.66
Westerbroek,51.43,6.24
Westerbrande,53.60,7.35
Westerbrak,51.96,9.56
Westerborstel,54.23,9.28
Wester Bordelum,54.63,8.93
Westerbönen,51.60,7.77
Westerbeverstedt,53.44,8.75
Westerbergen,54.43,11.10
Westerberg,52.27,8.02
Westerberg,51.92,9.95
Westerberg,51.46,7.3
Westerberg,47.99,12.04
Westerbelmhusen,53.91,9.09
Westerbeck,52.14,7.94
Westerbeck,53.83,10.86
Westerbeck,53.24,8.77
Westerbeck,52.51,10.63
Westerbeck,52.32,7.84
Westerbauerschaft,52.22,7.14
Westerbauerschaft,51.76,7.57
Westerbauerschaft,51.69,7.55
Westerbauer,52.41,7.65
Westerbauer,51.33,7.39
Wester-Bargum,54.70,8.95
Westerbakum,52.75,8.18
Westerbach,48.55,11.32
Westerbach,48.35,13.16
Westerau,53.78,10.5
Wester Altendeich,54.68,8.85
Westerakeby,54.58,9.68
Westeraccumersiel,53.67,7.47
Westeraccum,53.65,7.44
Wester,52.13,7.72
Wester,51.88,7.75
Westensee,54.28,9.9
Westenried,47.74,10.21
Westenholz,52.77,9.69
Westenholz,51.75,8.46
Westenhofen,47.74,11.85
Westenhausen,48.73,11.54
Westenfeld,51.46,7.15
Westenfeld,52.05,7.43
Westenfeld,52.42,8.93
Westenfeld,51.32,8.04
Westenfeld,50.43,10.49
Westendorf,52.90,9.75
Westendorf,52.46,7.51
Westendorf,52.20,9.14
Westendorf,52.17,8.39
Westendorf,51.48,8.25
Westendorf,51.48,7.65
Westendorf,51.33,7.73
Westendorf,48.56,10.83
Westendorf,48.43,12.02
Westendorf,47.93,10.71
Westendorf,52.06,7.97
Westende,53.75,9.36
Westende,51.41,7.40
Westend,52.51,13.27
Westend,52.45,13.6
Westenbrügge,54.04,11.73
Westenborken,51.82,6.80
Westenberg,52.30,7.07
Westen,51.26,7.16
Westen,52.87,9.11
Westen,52.83,9.30
Westen,51.20,7.17
Westen,48.76,12.23
Westen,48.11,12.28
Weste,53.05,10.70
Westdorf,53.66,7.0
Westdorf,53.99,9.12
Westdorf,53.72,7.36
Westdorf,53.64,7.31
Westdorf,51.73,11.43
Westbüdericher Haar,51.52,7.85
Westbüderich,51.53,7.86
Westbevern,52.02,7.77
Westbense,53.67,7.59
Westbarthausen,52.09,8.23
Westach,48.20,12.03
Wessobrunn,47.87,11.02
Weßnitz,51.27,13.55
Weßnig,51.51,13.04
Weßmar,51.39,12.11
Weßling,48.07,11.24
Wessiszell,48.37,11.07
Wessingen,48.32,8.93
Wessin,53.57,11.73
Wesseslinden,48.54,13.72
Wessentin,53.47,12.14
Wessental,49.73,9.41
Wessenstedt,53.05,10.45
Wessenhorst,51.84,7.89
Wessendorf,51.98,6.88
Wessendorf,51.78,7.01
Wessen,47.80,12.25
Wesselstorf,53.96,12.48
Wesseloh,53.18,9.74
Wesseln,54.2,9.08
Wesseln,52.08,10.03
Wesseling,50.82,6.97
Wesselin,54.55,13.58
Wesselburenerkoog,54.25,8.88
Wesselburener Deichhausen,54.16,8.93
Wesselburen,54.21,8.92
Wesselbach,51.34,7.56
Wessel,51.71,7.67
Wessel,51.31,14.45
Wessachhof,49.44,10.42
Wesperhöfen,52.20,8.26
Wespen,51.95,11.82
Wesloe,53.86,10.74
Weslarn,51.61,8.16
Weskow,51.59,14.39
Weskerhok,51.81,7.07
Weser-Elbe Kanal,52.3,8.93
Weserdeich,53.20,8.48
Weseram,52.46,12.67
Wesenstedter Riede,52.75,8.72
Wesenstedt,52.75,8.71
Wesenitz,51.39,12.06
Wesendorf,52.98,13.37
Wesendorf,52.6,10.53
Wesendahl,52.60,13.81
Wesenberg,53.28,12.96
Weselsdorf,53.35,11.45
Weseloh,52.80,8.89
Weselitz,53.25,13.97
Weselberg,49.33,7.61
Wesel,53.22,9.92
Wesel,52.42,7.38
Wesel,51.66,6.62
Weseke,51.90,6.85
Weseby,54.76,9.52
Weseby,54.50,9.71
Weseberg,52.14,9.12
Weschnitz,49.65,8.84
Wesbach,48.09,10.26
Werxhausen,51.51,10.18
Werwe,52.72,7.70
Werver Heide,51.57,7.73
Werve,51.58,7.73
Wertlau,51.91,12.13
Wertingen,48.56,10.68
Werthhoven,50.60,7.13
Werthesberg,50.59,9.75
Wertherbruch,51.79,6.52
Werther,52.07,8.41
Werthenbach,50.86,8.21
Wertheim,51.65,9.0
Wertheim,49.75,9.50
Werthausen,51.41,6.71
Werth,51.81,6.51
Werth,50.78,6.28
Wertach,47.60,10.40
Wersterholz,52.23,8.76
Wersten,51.18,6.81
Werste,52.21,8.77
Wershofen,50.44,6.81
Wersen,52.31,7.93
Werse,51.97,7.68
Werse,51.75,7.97
Wersdorf,51.05,11.46
Werschweiler,49.45,7.22
Werscheresch,52.25,8.21
Werschenrege,53.20,8.72
Wersche,52.24,8.20
Werschberg,50.86,7.43
Werschau,50.34,8.16
Wersch,50.89,7.42
Wersbach,51.10,7.11
Wersau,49.77,8.86
Wersabe,53.32,8.53
Werringsen,51.45,7.83
Werries,51.68,7.88
Werrich,51.65,6.53
Werpeloh,52.88,7.5
Werpe,51.15,8.25
Weroth,50.61,7.63
Weroth,50.46,7.95
Werntrop,51.15,8.19
Wernswig,50.99,9.36
Wernstein,50.11,11.38
Wernstedt,52.64,11.33
Wernsreute,47.75,9.52
Wernshausen,50.72,10.35
Wernsdorf,52.36,13.70
Wernsdorf,51.31,11.9
Wernsdorf,51.15,12.03
Wernsdorf,50.97,12.24
Wernsdorf,50.94,12.67
Wernsdorf,50.94,12.15
Wernsdorf,50.79,12.51
Wernsdorf,50.77,12.15
Wernsdorf,50.70,13.26
Wernsdorf,50.50,11.77
Wernsdorf,49.85,11.00
Wernsbach bei Windsbach,49.26,10.80
Wernsbach bei Ansbach,49.35,10.59
Wernsbach,49.18,11.07
Wernrode,51.40,10.73
Wernitzgrün,50.29,12.36
Wernitz,52.55,12.91
Wernitz,52.48,11.23
Werningsleben,50.88,11.05
Werningshausen,51.13,11.0
Werninghausen,51.30,7.51
Wernikow,53.20,12.43
Wernigerode,51.83,10.78
Wernhardsberg,48.20,12.15
Wernhardsberg,47.88,12.10
Wernges,50.67,9.42
Wernfels,49.19,10.87
Wernfeld,50.02,9.72
Werneuchen,52.63,13.73
Wernesgrün,50.53,12.47
Wernersreuth,49.91,11.95
Wernersreuth,49.96,12.37
Wernershausen,51.10,10.34
Wernersberg,49.18,7.93
Werneck,49.98,10.09
Werne,51.66,7.63
Bochum-Werne,51.48,7.31
Werndlfing,48.28,11.87
Wernburg,50.67,11.60
Wernborn,50.36,8.56
Wernberg-Köblitz,49.53,12.16
Wernau,48.69,9.41
Wernau,48.34,9.90
Wernarz,50.28,9.73
Werna,51.58,10.70
Wermutshausen,49.41,9.94
Wermsdorf,51.28,12.95
Wermingsen,51.37,7.72
Werminghoff,51.55,14.22
Wermertshausen,50.69,8.90
Wermerichshausen,50.23,10.27
Wermelskirchen,51.13,7.21
Werlte,52.85,7.68
Werlo,51.08,6.07
Werlitzsch,51.43,12.19
Werleshausen,51.32,9.91
Werlenbach,50.59,7.57
Werle,53.89,12.09
Werle,53.26,11.67
Werlau,50.15,7.68
Werlaburgdorf,52.04,10.53
Werl,51.80,8.02
Werl,52.07,8.72
Werl,51.55,7.91
Werkleitz,51.92,11.86
Werkhausen,50.73,7.53
Werkel,51.15,9.31
Weringhausen,51.16,7.99
Wergzahna,51.97,12.78
Werftpfuhl,52.66,13.79
Werfling,48.05,12.10
Werfen,52.18,8.55
Werfen,50.77,7.53
Werenzhain,51.65,13.53
Werenwag,48.07,9.01
Werenain,48.77,13.57
Werdumeraltengroden,53.67,7.75
Werdumeraltendeich,53.67,7.71
Werdum,53.65,7.71
Werdorf,50.59,8.41
Werdohl,51.26,7.76
Werderthau,51.62,11.99
Werdershof,52.43,12.29
Werdershausen,51.66,11.89
Werdern,51.29,8.40
Werder,52.13,11.65
Werder,54.15,12.80
Werder,53.71,13.35
Werder,53.50,12.00
Werder,53.48,13.09
Werder,53.48,12.33
Werder,52.97,9.04
Werder,52.94,11.79
Werder,52.92,12.70
Werder,52.51,13.94
Werder,52.43,11.15
Werder,52.37,12.93
Werder,52.11,14.03
Werder,52.03,10.11
Werder,52.00,13.12
Werder,52.49,14.49
Werdenstein,47.60,10.24
Werden,51.38,7.00
Werdeck,51.47,14.90
Werdau,51.55,13.03
Werdau,50.73,12.37
Werda,50.43,12.31
Werchow,51.72,13.95
Werchau,51.77,13.31
Werbsiepen,51.24,7.22
Werbig,52.56,14.38
Werbig,52.18,12.46
Werbig,51.93,13.19
Werberg,50.35,9.82
Werben,52.86,11.98
Werben,52.24,13.34
Werben,51.81,14.18
Werben,51.61,12.03
Werben,51.53,12.35
Werben,51.19,12.22
Werbelow,53.45,13.87
Werbeln,49.24,6.79
Werbellin,52.89,13.70
Werbelin,51.47,12.31
Werbachhausen,49.68,9.68
Werbach,49.67,9.63
Werafing,48.65,13.00
Weppersdorf,49.72,10.92
Wenzlow,52.31,13.78
Wenzlow,52.3,12.45
Wenzingen,52.88,9.68
Wenzigerode,51.08,9.17
Wenzenried,49.32,12.56
Wenzendorf,53.35,9.76
Wenzendorf,51.5,13.23
Wenzenbach,49.07,12.19
Wenzen,51.87,9.81
Wenze,52.56,11.13
Wentrup,52.11,7.62
Wentow,53.05,13.22
Wentorf bei Hamburg,53.5,10.25
Wentorf,54.37,9.77
Wentorf,54.28,10.54
Wentorf,53.67,10.47
Wentorf,52.74,10.65
Wentorf,52.11,8.90
Wentel,53.26,9.15
Wentdorf,53.02,11.67
Wentdorf,51.9,13.55
Wenstrup,52.55,8.07
Wensin,53.98,10.41
Wensickendorf,52.75,13.37
Wensebrock,53.09,9.50
Wense,53.35,9.36
Wense,52.91,9.81
Wense,52.35,10.36
Wenschebach,51.09,7.21
Wenschdorf,49.67,9.28
Wennungen,51.26,11.63
Wenningstedt,54.93,8.32
Wenninghausen,51.20,7.70
Wenninger,48.66,13.16
Wennigser Mark,52.27,9.52
Wennigsen,52.27,9.57
Wennigsen,52.20,8.28
Wennigloh,51.38,8.02
Wennewick,52.10,6.77
Wennerstorf,53.36,9.77
Wennenkamp,52.14,9.14
Wennenden,48.43,9.74
Wennemen,51.35,8.19
Wennemannswisch,54.20,9.03
Wennekath,53.23,10.62
Wennedach,48.11,9.90
Wennebostel,52.53,9.75
Wenndorf,51.73,11.87
Wennbüttel,54.13,9.33
Wenkheim,49.69,9.70
Wenkendorf,54.51,11.11
Wenkeloh,53.19,9.46
Wenkbach,50.74,8.71
Wenings,50.38,9.19
Weninghausen,51.31,8.05
Wenigumstadt,49.89,9.04
Wenigrötz,49.32,12.39
Wenigossa,51.01,12.66
Wenigmünchen,48.27,11.21
Wenighösbach,50.02,9.19
Wenigerath,49.82,7.13
Wenigentaft,50.76,9.93
Wenigensömmern,51.17,11.13
Wenigenlupnitz,50.98,10.42
Wenigenhasungen,51.33,9.24
Wenigenauma,50.67,11.92
Wenigau,48.41,12.82
Wenholthausen,51.28,8.18
Wengwies,47.59,11.21
Wengsel,52.34,7.13
Wenglingen,47.83,10.55
Wengerohr,49.97,6.94
Wengern,51.39,7.34
Wengenstadt,49.32,10.60
Wengenroth,50.54,7.98
Wengenreute,47.89,9.94
Wengenhausen,48.90,10.46
Wengen,49.05,11.16
Wengen,48.92,9.87
Wengen,48.66,11.02
Wengen,48.51,10.59
Wengen,47.94,11.07
Wengen,47.92,9.85
Wengen,47.74,9.92
Wengen,47.67,10.14
Wengen,47.55,10.04
Wengelsdorf,51.28,12.04
Wenge,51.68,6.99
Weng,48.66,12.38
Weng,48.59,13.05
Weng,48.45,13.14
Weng,48.36,11.58
Weng,47.97,12.17
Weng,47.97,11.93
Weng,47.84,12.90
Wendung,51.16,7.15
Wendtshof,53.35,14.06
Wendtshof,52.80,14.01
Wendtorf,54.41,10.3
Wendthöhe,52.28,9.2
Wendthagen,52.28,9.20
Wendsdorf,49.38,10.81
Wendschott,52.45,10.85
Bad Wendorf,53.91,11.43
Wendorf,54.30,13.35
Wendorf,54.25,13.07
Wendorf,54.14,13.24
Wendorf,54.10,12.42
Wendorf,53.96,12.27
Wendorf,53.83,12.33
Wendorf,53.81,11.85
Wendorf,53.78,10.84
Wendorf,53.66,11.66
Wendorf,53.50,12.92
Wendorf,53.39,13.47
Wendlmuth,48.32,13.23
Wendlinghausen,52.01,9.01
Wendlingen am Neckar,48.67,9.37
Wendlingen,47.97,7.79
Wendlingen,47.74,9.38
Wendling,47.82,11.90
Wendlberg,48.72,13.32
Wendishain,51.13,12.99
Wendisch Waren,53.57,12.12
Wendisch Rietz,52.2,14.01
Wendisch Rambow,53.77,11.40
Wendisch Priborn,53.33,12.27
Wendisch Lieps,53.46,10.71
Wendisch Langendorf,54.42,12.97
Wendisch Kirchhof,52.79,12.21
Wendischhorst,52.81,10.88
Wendischhagen,53.72,12.66
Wendisch Evern,53.21,10.46
Wendischenhof,49.34,9.71
Wendischbrome,52.61,10.92
Wendisch Borschütz,51.43,13.28
Wendisch Börgitz,52.54,11.62
Wendischbora,51.07,13.34
Wendischbaselitz,51.26,14.17
Wendisch Baggendorf,54.07,12.94
Wendhof,53.48,12.54
Wendhausen,53.24,10.56
Wendhausen,52.31,10.63
Wendhausen,52.13,10.06
Wendgräben,52.35,12.47
Wendgräben,52.14,12.04
Wendfeld,54.08,12.41
Wendfeld,53.42,13.12
Wendfeld,52.03,6.92
Wendezelle,52.32,10.39
Wendewisch,53.35,10.64
Wendessen,52.15,10.58
Wendesse,52.36,10.23
Wendersreuth,49.74,12.11
Wendershausen,51.32,9.87
Wendershausen,50.63,10.01
Wendershagen,50.90,7.73
Wendern,49.83,12.41
Wenderhütte,51.50,10.38
Wendenschloss,52.42,13.59
Wendenreute,47.89,9.46
Wendenhof,48.96,9.97
Wendenheim,48.25,12.29
Wendenhammer,50.12,12.05
Wendenerhütte,50.97,7.82
Wendenburg,53.43,12.26
Wendenborstel,52.64,9.43
Wenden,52.17,8.78
Wenden,52.62,9.38
Wenden,52.32,10.51
Wenden,50.96,7.86
Wenden,48.62,8.66
Wendemark,53.16,14.09
Wendemark,52.85,11.92
Wendemark,52.70,13.15
Wendelstorf,54.10,11.68
Wendelstorf,53.74,11.27
Wendelstein,51.27,11.46
Wendelstein,50.00,9.26
Wendelstein,49.35,11.15
Wendelskirchen,48.55,12.41
Wendelsheim,49.76,8.0
Wendelsheim,48.5,8.83
Wendelins,47.79,10.12
Wendelins,47.73,10.23
Wendelhöfen,49.95,11.56
Wendeldorf,48.51,12.45
Wendehausen,51.16,10.24
Wendefurth,51.73,10.92
Wendefeld,53.03,13.15
Wendeburg,52.32,10.39
Wendebrück,52.33,10.51
Wendeberg,52.45,12.38
Wendebach,50.83,9.71
Wenddorf,52.81,11.80
Wenddorf,52.38,11.74
Wenau,50.79,6.33
Wemmetsweiler,49.37,7.08
Wemmershof,49.40,9.42
Wemlighausen,51.07,8.42
Wemkendorf,53.26,8.14
Wemding,48.87,10.72
Wembach,49.80,8.78
Wembach,47.77,7.88
Wemb,51.58,6.17
Welzow,51.58,14.17
Welzin,53.93,11.10
Welzin,53.85,13.95
Welzin,53.51,12.03
Welzheim,48.87,9.63
Welze,52.58,9.53
Welz,50.96,6.25
Welxande,51.30,13.75
Welver,51.61,7.96
Weltzin,53.75,13.29
Weltwitz,50.72,11.78
Weltsöden,51.66,8.64
Weltewitz,51.41,12.56
Weltersburg,50.53,7.95
Weltersberg,49.35,9.53
Weltersbach,49.45,7.51
Welterod,50.13,7.88
Weltenschwann,48.71,8.68
Weltenburg,48.89,11.82
Welte,51.87,7.23
Welt,54.30,8.79
Welstorf,52.09,8.86
Welsow,53.06,14.00
Welsleben,52.00,11.63
Welsigke,52.08,12.50
Welsickendorf,51.90,13.14
Welshofen,48.32,11.27
Welsenhof,49.70,12.23
Welsede,52.18,9.21
Welsede,51.99,9.34
Welschneudorf,50.36,7.8
Welschingen,47.82,8.76
Welschensteinach,48.27,8.01
Welschenkahl,50.01,11.33
Welschen-Ennest,51.04,8.00
Welschenbach,50.36,7.06
Welschdorf,48.26,8.36
Welschbollenbach,48.30,8.08
Welschbillig,49.85,6.56
Welschbach,49.39,7.09
Welsberg,50.16,10.89
Welsau,51.57,12.96
Welplage,52.43,8.26
Welper,51.41,7.20
Welpe,52.71,8.30
Welpe,50.95,7.74
Welmlingen,47.69,7.56
Welmen,51.64,6.68
Welmbüttel,54.2,9.25
Wellucken,49.62,11.09
Welluck,49.68,11.63
Wellstraße,51.91,7.41
Wellspang,54.58,9.61
Wellsee,54.28,10.16
Wellsdorf,50.62,12.09
Wellmutsweiler,47.63,9.65
Wellmitz,52.06,14.70
Wellmich,50.17,7.69
Wellmersdorf,50.28,11.10
Wellishöfe,48.18,8.08
Wellingshof,48.83,9.56
Wellingsbüttel,53.64,10.07
Wellinghusen,54.17,8.96
Wellingholzhausen,52.15,8.26
Wellinghoferheide,51.46,7.5
Wellinghofen,51.46,7.49
Wellingerode,51.21,9.96
Wellingerode,51.09,9.93
Wellingen,52.29,8.18
Wellingen,49.44,6.52
Wellingen,48.67,9.48
Wellingdorf,54.32,10.17
Welling,50.33,7.31
Welliehausen,52.15,9.38
Wellie,52.57,9.07
Wellheim,48.81,11.08
Wellesweiler,49.34,7.22
Wellesberg,50.71,7.32
Wellesberg,50.29,11.51
Wellerswalde,51.34,13.09
Wellerstadt,49.66,11.03
Wellersen,51.79,9.78
Wellerscheid,50.92,7.43
Wellerode,51.23,9.57
Welleringhausen,51.27,8.73
Wellerhoop,54.21,9.32
Wellentrup,51.96,8.73
Wellentrup,51.93,9.02
Wellenstraße,53.53,9.73
Wellenheide,51.97,8.82
Wellendorf,52.18,8.14
Wellendorf,52.94,10.72
Wellendingen,48.14,8.70
Wellendingen,47.79,8.35
Wellenburg,48.33,10.82
Wellenberg,53.87,9.53
Wellen,53.40,8.84
Wellen,52.14,11.44
Wellen,51.14,9.17
Wellen,49.66,6.43
Welle,53.47,8.59
Welle,53.23,9.80
Welle,52.53,11.84
Welle,51.48,11.77
Welldorf,50.95,6.41
Wellbach,52.05,8.6
Wellaune,51.57,12.55
Well,51.12,7.25
Welkershausen,50.59,10.42
Welkers,50.48,9.72
Welkendorf,50.08,10.70
Welkendorf,49.90,11.30
Welkenbach,50.63,7.73
Welkenbach,49.58,10.85
Welka,51.23,14.11
Welitsch,50.34,11.28
Welgesheim,49.88,7.96
Welfesholz,51.63,11.56
Welferode,51.03,9.46
Weldingsfelden,49.32,9.73
Weldergoven,50.77,7.31
Welden,48.45,10.66
Welden,47.91,10.79
Welda,51.45,9.10
Welchweiler,49.58,7.5
Welcherod,50.98,9.30
Welcherath,50.31,6.96
Welchenholz,49.03,10.41
Welchenhausen,50.15,6.14
Welchendorf,50.38,11.05
Welchenberg,48.87,12.77
Welbsleben,51.70,11.42
Welbrechts,47.66,9.80
Welbhausen,49.52,10.21
Welbergen,52.20,7.25
Welbeck,51.91,7.73
Wekenborg,52.68,7.35
Weizern,47.61,10.60
Weizen,47.77,8.46
Weixerau,48.49,12.03
Weixdorf,51.14,13.79
Weitzschenhain,51.19,13.22
Weitzschen,51.09,13.42
Weitzmühlen,52.92,9.30
Weitzgrund,52.19,12.52
Weitsche,53.02,11.12
Weitramsdorf,50.25,10.88
Weitprechts,47.84,9.82
Weitnau,47.64,10.12
Weitmars,48.79,9.65
Weitmar,51.45,7.19
Weitisberga,50.50,11.49
Weitingen,48.45,8.79
Weitin,53.56,13.20
Weitgendorf,53.26,12.09
Weitgassing,47.98,12.70
Weitewelt,54.06,10.44
Weitesfeld,50.42,10.95
Weitersweiler,49.61,8.0
Weiterstadt,49.90,8.58
Weitersroda,50.43,10.77
Weiterskirchen,47.97,11.90
Weitershofen,47.81,9.91
Weitershausen,50.80,8.62
Weitershain,50.66,8.96
Weitersglashütte,50.43,12.61
Weitersdorf,49.40,10.90
Weitersburg,50.41,7.6
Weitersborn,49.85,7.53
Weitersbach,49.86,7.31
Weiterode,50.95,9.81
Weiterndorf,49.33,10.81
Weiterdingen,47.79,8.76
Weitenwinterried,48.43,11.27
Weitenung,48.74,8.12
Weitenried,48.29,11.12
Weitenhüll,48.74,12.52
Weitenhagen,54.22,12.78
Weitenhagen,54.05,13.40
Weiten-Gesäß,49.70,9.05
Weitenfürst,49.16,12.32
Weitenfeld,53.33,10.78
Weitendorf,54.01,12.42
Weitendorf,53.98,11.42
Weitendorf,53.89,12.27
Weitendorf,53.89,11.35
Weitendorf,53.71,11.74
Weitendorf,53.69,12.98
Weitendorf,53.35,13.39
Weitenburg,48.44,8.82
Weitenbühl,48.15,9.99
Weitenau,47.81,10.15
Weitenau,47.67,7.76
Weiten,49.53,6.54
Weitefeld,50.71,7.93
Weisweil,47.64,8.45
Weisweiler,50.82,6.31
Weisweil,48.19,7.67
Weistropp,51.08,13.58
Weißwasser,51.50,14.64
Weißthal,51.0,13.0
Weißnaußlitz,51.13,14.34
Weißling,48.39,11.52
Weißlensburg,49.20,9.43
Weißlenreuth,50.24,11.82
Weißkollm,51.41,14.39
Weißkirchen,50.18,8.60
Weißkeißel,51.48,14.71
Weißingen,48.45,10.15
Weißig,51.29,13.44
Weißig am Raschütz,51.34,13.65
Weißig,51.34,14.12
Weißig,51.33,14.38
Weißig,51.14,14.49
Weißig,51.06,13.88
Weißig,51.00,13.61
Weißig,50.94,14.07
Weißig,50.83,12.02
Weißfeld,50.53,7.37
Weißewarte,52.46,11.87
Weiße Taube,52.53,13.51
Weißer Hirsch,51.06,13.82
Weißenthurm,50.41,7.45
Weissenstein,49.63,12.37
Weißenstein,48.95,13.14
Weissenstein,48.76,13.16
Weißenstein,48.70,9.88
Weißenstadt,50.10,11.88
Weißenspring,52.23,14.50
Weißenseifen,50.15,6.55
Weißensee,52.91,13.94
Weißensee,51.19,11.06
Weißensee,47.57,10.63
Weißenschirmbach,51.31,11.55
Weißensberg,47.58,9.73
Weißensand,50.57,12.30
Weißenregen,49.16,12.84
Weißenohe,49.63,11.25
Weißenmoor,53.57,9.37
Weißenmoor,53.58,9.24
Weißenmoor,53.23,8.55
Weißenmoor,53.00,9.42
Weißenkirchen,49.05,11.92
Weißenkirchen,48.86,11.21
Weißenkirchberg,49.27,10.33
Weißenhorn,48.30,10.16
Weißenhof,49.16,9.29
Weißenhof,48.98,9.08
Weißenhaus,54.30,10.76
Weißenhasel,51.03,9.93
Weißenhaid,50.08,11.85
Weißenfels,51.20,11.96
Weißenfels,50.58,7.40
Weißenfeld,48.13,11.76
Weißendorf,50.68,12.0
Weißendorf,48.84,11.59
Weißendiez,50.86,10.18
Weißenburg in Bayern,49.03,10.97
Weißenburg,51.73,13.35
Weißenburg,50.73,11.44
Weißenbrunn vorm Wald,50.35,11.01
Weißenbrunn am Forst,50.19,10.99
Weißenbrunn,50.2,11.35
Weißenbrunn,50.07,10.69
Weißenbrunn,49.58,12.05
Weißenbrunn,49.42,11.36
Weißenbrüchen,50.74,7.63
Weißenbronn,49.32,10.81
Weißenborn-Lüderode,51.53,10.41
Weißenborn,51.53,10.41
Weißenborn,51.44,10.12
Weißenborn,51.11,10.11
Weißenborn,51.07,9.96
Weißenborn,51.02,11.99
Weißenborn,50.96,12.22
Weißenborn,50.93,11.88
Weißenborn,50.87,13.40
Weißenborn,50.82,9.43
Weißenborn,50.73,12.46
Weissenberg,48.91,12.83
Weißenberg,51.21,6.67
Weißenberg,51.19,14.65
Weißenberg,50.68,8.10
Weißenberg,49.57,11.72
Weißenbach,51.25,9.84
Weißenbach,50.24,9.72
Weissenbach,50.12,11.62
Weißenbach,49.53,11.37
Weißenbach,47.76,11.98
Weißenbach,47.76,9.6
Weißenbach,48.11,8.18
Weißenau,47.76,9.59
Weißen,51.84,13.24
Weißen,50.73,11.44
Weißen,47.74,10.64
Weißen,47.56,9.90
Weißehütte,51.56,9.59
Weiße Ahe,51.17,7.78
Weißdorf,50.18,11.85
Weisbrem,50.08,11.07
Weißbach,51.27,13.92
Weißbach,51.21,14.03
Weißbach,51.07,12.74
Weißbach,50.86,12.31
Weißbach,50.81,11.78
Weißbach,50.73,13.01
Weißbach,50.72,11.45
Weißbach,50.62,12.58
Weißbach,49.29,9.59
Weißbach,47.74,12.91
Weißbach,47.59,10.55
Weißbach,47.72,12.76
Weißandt-Gölzau,51.67,12.07
Weißag,51.69,13.96
Weißagk,51.77,14.55
Weißack,51.75,13.69
Weißachen,47.80,12.57
Weissach,48.84,8.92
Weißach,47.69,11.74
Weißach,47.54,10.01
Weiß,50.86,7.03
Weiss,48.12,12.46
Weismain,50.08,11.23
Weislitz,49.41,12.42
Weiskirchen,50.05,8.88
Weiskirchen,49.55,6.81
Weisingen,48.51,10.51
Weisin,53.49,12.07
Weisham,47.91,12.38
Weisham,47.82,12.35
Weisenheim am Sand,49.51,8.24
Weisenheim am Berg,49.51,8.15
Weisendorf,49.62,10.82
Weisenbach,48.71,8.35
Weisenbach,48.43,8.00
Mainz-Weisenau,49.97,8.29
Weisen,53.03,11.78
Weisel,50.11,7.8
Weisel,48.23,9.75
Weisdin,53.40,13.10
Weischwitz,50.60,11.39
